name,email,address,rating,website,latitude,longitude
Quatz,wzaniolini0@amazonaws.com,6086 Morrow Park,4,https://goo.gl,48.8466523,2.2582125
Demivee,dcoughlin1@hhs.gov,7347 Graceland Road,3,http://deliciousdays.com,11.5399857,-85.6986957
Aimbu,oocrigane2@alexa.com,36581 Hauk Point,0,https://sourceforge.net,42.8043197,132.8288963
Twimm,ccaddick3@taobao.com,616 Talisman Terrace,1,http://quantcast.com,52.1584604,20.9110916
Jazzy,rnairne4@un.org,09 Montana Place,4,https://reference.com,-42.7700601,-65.0306302
Voomm,fsnoday5@51.la,102 Elka Terrace,0,http://wisc.edu,62.2666019,27.1252002
Babbleset,csarch6@globo.com,1827 Manufacturers Road,1,http://diigo.com,38.1748383,20.5829927
Teklist,odouche7@w3.org,49 Bultman Junction,2,http://networkadvertising.org,-15.158624,-48.2802925
Jaxnation,mpringell8@webnode.com,91687 Melby Pass,2,https://hc360.com,29.985295,122.207215
Shuffletag,ttreagus9@shop-pro.jp,8455 Starling Center,4,https://bloglines.com,57.9609962,46.6878846
Edgeify,bescalantea@histats.com,0213 Lunder Parkway,4,http://homestead.com,-8.5583,116.5378
Feedspan,rvidgeonb@amazon.co.uk,24 Stuart Point,1,https://columbia.edu,9.1742107,-79.5687728
Livepath,mprobeyc@cloudflare.com,851 Merrick Park,3,https://linkedin.com,51.7976037,19.4547287
Dynabox,gpeegremd@photobucket.com,94 Eagle Crest Trail,4,https://yandex.ru,54.605563,48.924236
Yadel,rabrashkove@mit.edu,5 Delaware Drive,1,https://icio.us,-8.6467,121.1244
Einti,fswiresf@dagondesign.com,75039 Donald Parkway,3,http://google.com.br,-7.8090256,110.363649
Zoonder,gstiffellg@blogger.com,2 Bobwhite Trail,4,https://theguardian.com,7.1972968,38.6005328
Quatz,bleathesh@istockphoto.com,24133 Drewry Crossing,5,https://aol.com,-5.9317384,-77.2261452
Quaxo,dsamperi@plala.or.jp,545 Old Gate Circle,1,https://ft.com,19.371561,110.104886
Gabvine,czanicchij@unesco.org,91 Rigney Hill,0,http://jiathis.com,49.9176763,18.3509727
Devpoint,tdenyagink@epa.gov,509 Becker Pass,1,http://nydailynews.com,49.3564315,16.6227158
Blogtag,mdundendalel@gnu.org,2428 Hansons Road,3,https://meetup.com,46.0457437,14.8410058
Kazio,emacsherrym@smugmug.com,35079 Lukken Junction,2,http://vk.com,-7.1928,108.6334
Ooba,estledgern@sitemeter.com,32 Tennessee Place,0,http://hp.com,39.7406374,-8.7186315
Ainyx,csperringo@mashable.com,30 Dakota Drive,4,http://shinystat.com,50.6199,26.251617
Fliptune,jjacquemyp@oaic.gov.au,764 Prairieview Crossing,3,http://unicef.org,18.5060252,-69.8489425
Livetube,cloutheq@census.gov,7419 Quincy Place,3,https://jiathis.com,34.38528,36.03111
Tekfly,eraor@reference.com,49252 Muir Terrace,2,https://msu.edu,25.570888,111.945844
Topdrive,xocooneys@furl.net,18156 Walton Drive,4,http://wp.com,-12.2684648,-41.5612423
Realcube,fkediet@bloglovin.com,135 Fuller Way,3,https://prweb.com,13.369605,100.987203
Rhynoodle,sstilesu@wikipedia.org,9 Oakridge Park,3,http://ted.com,-34.9284989,138.6007456
Leenti,atrytsmanv@list-manage.com,4 Homewood Way,4,https://yahoo.com,22.801624,113.525165
Skipfire,fcranglew@cbslocal.com,56689 Amoth Court,2,https://aol.com,32.7011609,-97.3354531
Meetz,afairlambx@ox.ac.uk,6 Rigney Junction,3,https://hhs.gov,48.94153,-125.54635
Tazzy,kvannary@indiegogo.com,329 Monument Circle,1,http://marketwatch.com,40.23921,116.12895
Jayo,kfinanz@ocn.ne.jp,6 Eggendart Lane,5,http://reuters.com,-7.2558406,112.525711
DabZ,sbexley10@de.vu,51496 Texas Place,5,http://phpbb.com,8.955271,126.009711
Skalith,jcaplan11@china.com.cn,53 Pond Point,2,https://newsvine.com,33.7654607,-84.38709
Centidel,aastlett12@ovh.net,8747 Caliangt Pass,2,https://vinaora.com,44.1947831,132.518626
Feedbug,akarlsson13@wikia.com,6000 Talisman Place,1,https://51.la,32.9483104,130.5762726
Eare,hcamous14@blogs.com,33792 Dexter Drive,2,http://indiatimes.com,-8.5335451,-172.5165543
Thoughtbeat,ehambidge15@economist.com,573 Sullivan Place,1,http://etsy.com,0.8554519,124.6192702
Dynabox,bwilkison16@umich.edu,736 Del Mar Hill,3,https://bloomberg.com,49.3756258,40.1418221
Rooxo,emartygin17@lycos.com,52939 Vera Avenue,4,http://sciencedaily.com,34.7345529,66.9511459
Yotz,tharding18@nyu.edu,82 Sauthoff Terrace,5,https://dot.gov,21.795522,109.825927
Linktype,washbridge19@deliciousdays.com,3386 Acker Terrace,0,https://ft.com,39.386508,76.54461
Feedfish,awhistan1a@nbcnews.com,1611 Waywood Park,5,http://usgs.gov,-23.5441298,-46.3660676
Cogilith,krew1b@cbsnews.com,942 Graedel Plaza,4,http://mail.ru,-28.183771,23.5609459
Buzzster,cvasler1c@usgs.gov,1609 Toban Way,2,https://skype.com,38.932165,76.204351
Tavu,egallico1d@devhub.com,2800 Lukken Trail,3,http://sciencedaily.com,-6.6549447,111.1160864
Zazio,rsleit1e@china.com.cn,9682 Eliot Pass,1,https://studiopress.com,23.817974,113.273132
Riffwire,aliddiard1f@irs.gov,46898 Miller Avenue,2,https://edublogs.org,24.347324,102.527197
Shufflebeat,zmcartan1g@seesaa.net,30 Anthes Place,0,http://miitbeian.gov.cn,38.04119,70.47298
Demimbu,cvanthoog1h@is.gd,8020 Waubesa Alley,4,https://prlog.org,30.1902447,31.1384342
Myworks,cdominik1i@cloudflare.com,57 John Wall Crossing,0,https://phoca.cz,45.5119921,19.8423848
Brainlounge,dvertey1j@wikia.com,82865 Fieldstone Point,5,http://soup.io,-7.3582578,109.540241
Jaxnation,ltottie1k@rediff.com,14 Grover Alley,3,https://reference.com,46.2824183,48.0477271
Flashdog,dcaldwell1l@ca.gov,94550 Birchwood Junction,4,http://newsvine.com,-20.4670046,-55.7872944
Browsezoom,akenafaque1m@newsvine.com,5 Carpenter Avenue,5,http://phpbb.com,52.2871973,21.2810466
Feednation,tdesforges1n@alibaba.com,52 Twin Pines Center,5,http://soup.io,-20.1287177,-44.8645811
Skinte,ecarnier1o@yahoo.co.jp,032 Clarendon Center,2,http://buzzfeed.com,37.215613,121.267875
Fliptune,cmicklewicz1p@mozilla.org,1 Lindbergh Court,5,https://t.co,-7.5651443,112.239892
Vinte,jissard1q@i2i.jp,3 Sloan Center,1,https://samsung.com,31.105555,111.214922
Dabshots,lairy1r@google.com.hk,8 Gina Parkway,1,http://github.io,31.857198,112.180321
Centidel,mgershom1s@deviantart.com,06664 Menomonie Pass,2,https://google.fr,36.6107151,27.1320962
Miboo,mguttridge1t@tinyurl.com,9812 Packers Circle,0,https://senate.gov,19.482042,-99.1985584
Avavee,mbarrow1u@cdc.gov,31 Marquette Point,0,https://noaa.gov,35.121884,119.318928
Flashdog,galeksidze1v@e-recht24.de,3 Dapin Alley,5,https://photobucket.com,-21.8022635,-48.184644
Eidel,cdobrowski1w@weibo.com,596 Westend Street,5,https://usgs.gov,39.024258,88.166695
Camimbo,astennes1x@posterous.com,13 Express Plaza,0,https://google.com,59.3251422,18.0702683
Blogtag,iclemente1y@indiegogo.com,7 Holy Cross Drive,2,http://soup.io,-18.8424187,-42.8247877
Wikizz,echatwood1z@yandex.ru,38 Melvin Drive,3,https://squidoo.com,-7.4866757,107.485433
Wikido,oseeviour20@imageshack.us,8 Merrick Way,3,http://microsoft.com,46.0852466,18.3028286
Lazzy,agetten21@cafepress.com,6966 Cardinal Alley,4,https://addthis.com,41.5493752,-8.2637978
Demimbu,hwaters22@mysql.com,32 Mariners Cove Road,1,http://sourceforge.net,-2.1709979,-79.9223592
Eare,oiacomi23@lulu.com,0 Rowland Court,2,https://surveymonkey.com,38.0244455,140.0946079
Blogspan,bhalgarth24@nydailynews.com,4 Shoshone Plaza,0,http://4shared.com,56.7679359,37.5577219
Realmix,mtretwell25@nifty.com,5417 Anhalt Trail,2,https://shinystat.com,-9.4583,120.0497
Skipstorm,smccague26@dion.ne.jp,8 Lakewood Gardens Point,3,https://ibm.com,54.5489994,17.7869518
Brainverse,gaymes27@comsenz.com,28414 Grayhawk Terrace,3,https://xing.com,58.3226908,15.1335348
Skyndu,awaldera28@google.de,9 Prairieview Street,4,http://yahoo.com,53.9559626,38.2899306
Blogspan,cbonnyson29@bizjournals.com,27645 Merchant Way,3,https://angelfire.com,25.112406,110.446979
Youfeed,cheyfield2a@yolasite.com,54015 Rockefeller Center,5,https://bbb.org,41.191548,19.626265
Flashpoint,ddonise2b@cam.ac.uk,03642 Dexter Road,0,http://apple.com,7.1809842,7.9797219
Browseblab,rbeche2c@boston.com,54302 Eliot Road,3,http://stumbleupon.com,33.551052,119.113185
Oba,dshilton2d@prlog.org,6661 Hermina Point,3,https://macromedia.com,-6.9970846,-76.1660561
Yotz,mbocking2e@google.it,88215 Eastlawn Avenue,0,http://nih.gov,57.778556,14.1619341
DabZ,tstansfield2f@accuweather.com,9 Jenna Park,5,http://forbes.com,-6.2923526,106.7961188
Thoughtstorm,agomar2g@sina.com.cn,3596 Manley Court,3,http://timesonline.co.uk,11.9913493,108.9383377
Lazz,wsawers2h@google.fr,45 Anzinger Road,3,http://example.com,-16.9205934,35.253304
Voonyx,kbaudy2i@is.gd,2950 Bunting Crossing,1,http://behance.net,48.8231572,103.5218199
Wordify,efeldbau2j@ovh.net,61 3rd Road,0,http://ameblo.jp,10.39799,123.915501
Wikido,chintzer2k@accuweather.com,42 Elmside Junction,1,http://jimdo.com,6.2266087,125.1233876
Wordpedia,tlithgow2l@i2i.jp,57 Riverside Street,1,http://cbsnews.com,45.3369621,97.9685657
Quimm,dwallice2m@reddit.com,8886 Mallory Street,3,http://smh.com.au,-3.8277688,119.7773461
Yamia,mwiggington2n@omniture.com,0876 Alpine Court,0,https://marriott.com,48.5228354,2.6377136
Skajo,obalmadier2o@senate.gov,25 Scott Street,5,http://xrea.com,6.6753696,124.5444219
Wikibox,bbernakiewicz2p@utexas.edu,66 Truax Point,5,https://uiuc.edu,30.352134,114.720925
Brightdog,jferrillo2q@shinystat.com,0969 David Terrace,3,https://army.mil,39.9912749,116.4717334
Quimm,jgoodluck2r@moonfruit.com,2 Corry Parkway,4,http://wikipedia.org,18.5060252,-69.8489425
Gigabox,tblancowe2s@hatena.ne.jp,29077 Moland Terrace,0,http://simplemachines.org,38.5796262,141.2777515
BlogXS,kmcvittie2t@blinklist.com,5 Upham Hill,0,http://ted.com,51.2982002,20.2969528
Kwilith,bjannequin2u@jigsy.com,5 Knutson Street,2,https://google.nl,-6.4054875,107.7458559
Devcast,rbranch2v@goodreads.com,110 Del Sol Point,3,http://nba.com,58.6772898,52.190142
Jaloo,cbarfield2w@woothemes.com,560 Meadow Ridge Road,1,https://mail.ru,39.013668,112.882158
Wordtune,cbarkley2x@vimeo.com,69 Schmedeman Terrace,5,http://nih.gov,24.588267,115.415276
Tazz,pcurrm2y@eventbrite.com,922 Sunbrook Drive,4,https://newsvine.com,-6.9042641,107.6474283
Tazz,cwortley2z@craigslist.org,7 Vermont Center,3,http://apple.com,13.6261714,123.1606556
Jatri,descott30@ning.com,180 Hanover Avenue,1,https://wired.com,50.1267067,45.4468585
Thoughtmix,fbelford31@fema.gov,7 Glendale Junction,0,https://hhs.gov,27.123078,104.727418
Avaveo,jlynam32@hatena.ne.jp,3312 Sheridan Lane,4,https://dyndns.org,33.437877,113.609286
Jaxspan,kmicklewright33@sciencedirect.com,64 Milwaukee Circle,0,http://va.gov,61.3527575,16.4421344
Bubblemix,fpoltone34@goodreads.com,449 Warbler Avenue,5,http://ask.com,40.8437383,22.2997708
Skinder,ejanicijevic35@nydailynews.com,4 Almo Park,4,http://blogger.com,56.2807392,14.5530718
Jabbersphere,vbarg36@addtoany.com,33419 Merrick Terrace,1,http://hugedomains.com,22.396428,114.109497
Skinder,wmcilmorow37@va.gov,8191 Mifflin Junction,3,https://t.co,14.1967923,121.4019727
Thoughtbeat,lhudson38@mysql.com,3514 Delladonna Road,0,http://miitbeian.gov.cn,24.034527,112.047639
Feedspan,chartmann39@newsvine.com,62749 Warner Street,3,https://businessinsider.com,-8.037728,111.4007597
Podcat,ebodman3a@pinterest.com,47 Thierer Circle,4,http://hc360.com,-11.2568167,-39.0710754
Oyoloo,lhouldcroft3b@reddit.com,95312 Sage Parkway,5,https://nbcnews.com,50.0449195,13.3750303
Aibox,ksearston3c@hhs.gov,10493 Coolidge Plaza,1,https://arstechnica.com,-0.5223759,121.674572
Twimm,afeifer3d@people.com.cn,2 Fallview Court,2,https://drupal.org,39.9716709,44.5352163
Oyondu,cmillson3e@businesswire.com,79 Main Point,1,https://tmall.com,-34.7791734,-55.2314448
Browsetype,rstodhart3f@state.tx.us,56 Manitowish Plaza,3,https://google.co.uk,40.215006,70.5696268
Brightdog,cbreeze3g@comsenz.com,983 Red Cloud Junction,3,http://cbslocal.com,10.1794092,-66.7248247
Eare,ranglish3h@adobe.com,7 Dennis Plaza,0,https://constantcontact.com,8.4286368,124.2876362
Skyndu,psaul3i@businesswire.com,9256 Mayer Center,3,http://examiner.com,49.0122384,14.3800489
Einti,dkybird3j@theguardian.com,7 Dennis Point,3,http://time.com,59.4744985,18.3007988
Skidoo,fdibnah3k@last.fm,8 Iowa Parkway,4,http://sourceforge.net,15.2674321,-88.5420304
Jabbersphere,klambillion3l@imageshack.us,57 Express Trail,0,http://people.com.cn,51.4986953,-0.1550173
Ailane,mharris3m@wikia.com,6253 Lien Pass,0,http://usatoday.com,-8.098655,112.6824377
Omba,evasyaev3n@ovh.net,746 Maywood Circle,2,https://bloglines.com,-27.593609,-48.5027406
Skyvu,tyaneev3o@aol.com,66202 Sherman Hill,0,https://xinhuanet.com,53.377533,-6.2633149
Babbleblab,mburlingham3p@psu.edu,6 Messerschmidt Parkway,1,http://ft.com,56.6441805,-111.4052626
Midel,acopeman3q@tumblr.com,0853 Anderson Parkway,3,http://engadget.com,43.1508732,-79.2056361
Kanoodle,kwoodwind3r@sbwire.com,657 Ramsey Avenue,1,http://thetimes.co.uk,43.4945737,5.8978018
Skiptube,adugall3s@wikimedia.org,7 Steensland Way,2,http://quantcast.com,2.9662346,99.7985457
Voomm,rskeats3t@histats.com,0 Havey Pass,4,http://51.la,49.988725,20.7001411
Zazio,bdarcy3u@i2i.jp,092 Lakewood Gardens Plaza,1,https://printfriendly.com,37.9011442,23.8726503
Meembee,bjovis3v@unc.edu,53 Stang Road,3,https://cocolog-nifty.com,53.2853393,18.9435626
Tekfly,hdahlen3w@zimbio.com,362 4th Pass,3,http://odnoklassniki.ru,33.437877,113.609286
Edgepulse,mskains3x@cmu.edu,46 Merrick Park,5,http://amazonaws.com,16.7560469,-22.9386472
Devpulse,gdenton3y@privacy.gov.au,410 Cordelia Junction,0,http://twitter.com,-9.3224332,-77.6034894
Twimbo,dhowen3z@etsy.com,287 Merrick Center,2,https://sphinn.com,22.270978,113.576677
Zoovu,wandroli40@accuweather.com,8 Maywood Point,3,http://topsy.com,43.53121,1.402934
Bubbletube,eabrahamoff41@mozilla.org,27010 Packers Circle,2,https://yahoo.co.jp,34.0293135,72.9678226
Vidoo,kfluin42@bravesites.com,1517 Hovde Trail,5,https://w3.org,7.4240414,-6.0520363
Dabshots,cdiggles43@quantcast.com,002 Dorton Way,1,http://phoca.cz,25.1434095,-12.3714463
Trudoo,dcuddy44@icio.us,70 Emmet Circle,4,https://wunderground.com,51.2879708,15.2299326
Shufflester,areddan45@comsenz.com,0 Oak Park,4,https://example.com,-6.944465,111.4782661
Skyndu,cmoulder46@tamu.edu,80247 Elka Avenue,3,https://stanford.edu,57.7470467,14.1650902
Eire,rsentinella47@constantcontact.com,3076 Sachtjen Street,1,http://sciencedaily.com,34.2398892,135.2395881
Fanoodle,rdodamead48@technorati.com,87 Orin Junction,2,https://stumbleupon.com,1.968543,-157.3936469
Skalith,mpalfreyman49@nps.gov,76121 Fair Oaks Plaza,3,https://geocities.jp,34.9255083,64.1478236
Zoovu,lattoc4a@independent.co.uk,79 Forest Alley,4,http://vimeo.com,29.780431,121.411468
Gabcube,lfranks4b@amazonaws.com,94128 Truax Pass,5,https://intel.com,-6.0802849,106.3110622
Latz,kstonham4c@sina.com.cn,900 Glendale Crossing,0,http://msn.com,59.7434607,10.1922785
Gabtune,rbrydone4d@php.net,705 Ramsey Trail,5,http://kickstarter.com,53.4808987,34.4602881
Jaxworks,lkees4e@cbslocal.com,100 Summit Plaza,1,https://tmall.com,43.555139,43.8674076
Mudo,lgodar4f@unesco.org,84200 Becker Circle,1,http://google.cn,13.5115963,2.1253854
Jabbertype,sdeveraux4g@army.mil,4 Autumn Leaf Way,1,http://microsoft.com,48.5902942,23.3746272
Jaxnation,ggeratt4h@eepurl.com,14 Boyd Road,2,https://tinypic.com,53.8458953,19.6034448
Meevee,oburriss4i@hud.gov,3403 Bultman Way,1,http://angelfire.com,-51.6415071,-69.2304627
Quimm,scathrae4j@spotify.com,551 Moulton Court,1,https://youtu.be,23.696329,117.433977
Yamia,scolleymore4k@dion.ne.jp,14659 Sugar Trail,1,http://drupal.org,58.3492338,45.5173688
Tazzy,redmundson4l@craigslist.org,08 Hayes Avenue,4,http://gravatar.com,27.867125,107.503649
Babbleopia,imapp4m@businessinsider.com,85784 Bultman Terrace,1,https://home.pl,39.025627,116.975436
Centidel,hluckcuck4n@uol.com.br,3 Fallview Junction,0,http://squidoo.com,55.9840531,37.1619979
Minyx,apetrussi4o@networksolutions.com,778 Birchwood Hill,0,http://miitbeian.gov.cn,53.6934353,124.8109085
Flashspan,lforri4p@blogtalkradio.com,70958 Stuart Lane,1,https://behance.net,43.9770581,4.8762265
Dabtype,hsiss4q@1und1.de,908 Shoshone Plaza,3,http://patch.com,48.8270848,2.5111543
Ntags,llovitt4r@meetup.com,15 Del Mar Circle,0,https://techcrunch.com,-8.2133,114.3701
Skippad,raskew4s@wordpress.org,8 Maryland Hill,2,http://canalblog.com,36.3006568,137.9047429
Kazio,mcosslett4t@issuu.com,6410 Namekagon Parkway,3,https://imgur.com,61.3294177,29.1257738
Jaxspan,ljouanet4u@aol.com,77124 Mallory Alley,5,https://constantcontact.com,24.754346,107.220298
Oyope,adulin4v@twitter.com,6 Helena Trail,4,http://eventbrite.com,59.93387,10.7238762
Realmix,scassius4w@dailymail.co.uk,344 Barnett Plaza,2,http://skype.com,11.4752,124.5324
Vinder,idods4x@wisc.edu,57 Kinsman Pass,5,http://nps.gov,50.8290137,15.6741931
Eidel,jilyenko4y@cargocollective.com,6291 Texas Drive,2,http://smh.com.au,13.7191394,100.2207634
Fiveclub,dnaismith4z@theguardian.com,2 Shopko Way,2,https://google.com.br,55.55361,21.32667
Skimia,dsteer50@wired.com,17 Jenna Road,2,http://pen.io,48.9728482,8.4060268
Devify,dvoller51@yahoo.com,10336 Portage Trail,3,https://dailymotion.com,-6.2962889,106.2413249
Oozz,barnhold52@multiply.com,9 Mariners Cove Drive,5,http://china.com.cn,45.79817,109.31826
Janyx,jduckworth53@state.gov,3 Dakota Crossing,3,http://npr.org,-6.5397069,110.8463512
Myworks,mnorthfield54@github.io,17 Lerdahl Junction,5,http://tinyurl.com,22.7292345,-81.2917971
Livefish,cworrill55@msn.com,313 Anderson Court,2,http://about.me,4.9764526,-75.6695834
Jayo,frigolle56@admin.ch,98 New Castle Point,2,http://soup.io,34.4906784,69.2698737
Rhynyx,jatcock57@pbs.org,54 Cardinal Hill,2,http://unicef.org,30.453667,114.872199
Tagcat,ddarcy58@myspace.com,695 Acker Terrace,5,https://parallels.com,49.6935113,12.8516728
Roodel,hraraty59@sina.com.cn,1106 Lien Road,2,http://stanford.edu,43.8580221,18.4306437
Skilith,jradenhurst5a@ftc.gov,79 7th Place,4,https://wordpress.org,51.6521236,39.0891762
Vimbo,wfee5b@blogs.com,357 Randy Park,2,https://mediafire.com,53.5659675,15.28454
Twinder,bcrann5c@creativecommons.org,48 Jay Plaza,4,http://smh.com.au,32.501495,119.196466
Wordtune,wong5d@msu.edu,0 Swallow Lane,0,http://hugedomains.com,31.77,-106.43
Babblestorm,ttowsey5e@posterous.com,07 Anthes Court,1,http://census.gov,45.9678392,13.6455618
Omba,ygremain5f@answers.com,42933 Tony Drive,0,http://buzzfeed.com,28.55386,112.35518
Devify,htschiersch5g@alexa.com,19 Graceland Place,0,https://dyndns.org,50.1676885,23.0349969
Eamia,cwoodroffe5h@mashable.com,4136 Barnett Plaza,2,https://biglobe.ne.jp,47.09995,-55.76504
Buzzshare,rriping5i@ask.com,0 Thackeray Pass,2,https://ask.com,39.0269443,-94.6673484
Yata,wlombardo5j@zdnet.com,83327 Green Ridge Court,3,http://noaa.gov,31.2367474,121.5221244
Flipopia,moshiels5k@intel.com,2 Parkside Park,2,http://sbwire.com,11.0358967,122.5157547
Bubbletube,nmacconneely5l@webeden.co.uk,64473 8th Plaza,3,https://sciencedirect.com,-7.1033128,112.2026347
Lajo,dtolland5m@sakura.ne.jp,2492 Elka Terrace,3,http://godaddy.com,26.411026,-80.0926014
Kimia,jbeushaw5n@ask.com,2 Springview Road,5,https://flickr.com,28.663694,118.534841
Livetube,jrunnalls5o@gizmodo.com,3 Butternut Lane,5,https://google.com.au,40.570338,116.554665
Yoveo,lfontell5p@woothemes.com,865 Brown Road,0,http://wisc.edu,54.3494655,38.2582586
Photobug,mskelton5q@alibaba.com,98 Sutherland Parkway,3,http://abc.net.au,41.4390535,-6.3931513
Tagfeed,kdowderswell5r@pbs.org,13382 Forest Crossing,3,http://liveinternet.ru,-4.163679,18.8076195
Dazzlesphere,amogie5s@w3.org,621 Anhalt Avenue,4,http://nbcnews.com,56.6444907,14.224297
Omba,cthewys5t@redcross.org,90 Oak Valley Court,4,http://tmall.com,24.4908935,118.1202121
Plajo,zwhall5u@slate.com,53 David Pass,1,http://typepad.com,49.116169,6.1807997
Twitterwire,mcaris5v@slideshare.net,16076 Nova Avenue,3,http://hc360.com,32.213184,35.170689
Buzzster,dbarock5w@wunderground.com,330 Eliot Street,1,http://baidu.com,34.6495513,-3.8629852
Gabtype,dforbear5x@opera.com,4 Mallory Road,5,http://hexun.com,-20.4670046,-55.7872944
Twinder,rsouthon5y@technorati.com,51 Graedel Center,1,https://odnoklassniki.ru,13.253123,-59.6377134
Twitterwire,bworster5z@tuttocitta.it,109 Walton Street,1,https://flavors.me,53.5199891,59.8158991
DabZ,smeeus60@blogspot.com,21026 Saint Paul Plaza,2,https://census.gov,34.26645,108.960747
Twitternation,gbiswell61@who.int,268 Dakota Place,1,https://tripod.com,23.354091,116.681972
Quinu,esheach62@msu.edu,060 Northridge Plaza,2,https://nyu.edu,16.1329692,119.8370843
Vimbo,hredman63@topsy.com,19 Esch Drive,4,https://hao123.com,41.0062832,-8.4822972
Youbridge,tcurry64@scribd.com,24298 Iowa Point,1,http://usnews.com,-18.4315276,-39.9322068
Rooxo,tkinman65@fastcompany.com,8 Norway Maple Junction,1,https://soup.io,25.600871,115.804049
Topicshots,pstych66@ocn.ne.jp,27082 Crescent Oaks Avenue,1,https://bizjournals.com,-23.6012232,-51.6392076
Camimbo,gtraill67@wikipedia.org,9742 Dovetail Trail,4,https://blogtalkradio.com,41.2781543,-8.718171
Fivespan,ityrwhitt68@nymag.com,767 Dapin Lane,0,http://jimdo.com,0.97319,124.674591
Realbuzz,jmushet69@constantcontact.com,13669 Badeau Street,4,http://usatoday.com,12.6757233,-86.571617
Oyoba,mdeaconson6a@java.com,7496 Mendota Way,1,https://github.com,37.9400581,110.9938854
Skipstorm,fyukhnevich6b@smh.com.au,7839 Bashford Junction,5,https://state.gov,47.07472,35.14444
Leexo,aklosa6c@ihg.com,01593 John Wall Street,3,https://storify.com,36.5098375,37.3373042
Linktype,asanbrook6d@paypal.com,87 Dwight Parkway,1,https://cafepress.com,-3.870003,-38.602824
Lajo,elorie6e@hatena.ne.jp,3231 Welch Junction,0,http://about.me,41.4472964,-8.5893138
Layo,wchaplin6f@adobe.com,1 Schiller Center,3,https://yellowpages.com,41.4578988,-8.5462667
Yombu,gsigg6g@sciencedaily.com,22 Columbus Avenue,1,https://wikia.com,29.483809,90.266692
Browsetype,cpatry6h@example.com,27494 Bobwhite Plaza,3,https://oracle.com,37.1073284,-8.7960152
Skynoodle,skuna6i@smugmug.com,441 Longview Plaza,0,http://adobe.com,15.8564553,120.4356909
Devcast,pdillway6j@fastcompany.com,95 Merry Alley,0,http://mayoclinic.com,12.8207931,-84.2002101
Fivebridge,nsmeuin6k@tamu.edu,5 Golden Leaf Road,2,http://newsvine.com,19.3999682,-99.2047894
Oyoyo,jmckag6l@usa.gov,1 Namekagon Drive,0,http://techcrunch.com,31.896059,35.254768
Meetz,dmulles6m@w3.org,5217 Longview Way,2,https://go.com,50.62508,19.3633201
Realbuzz,nmounfield6n@xinhuanet.com,86 Londonderry Street,3,https://cloudflare.com,-7.068848,109.0364038
Viva,cpaintain6o@cnbc.com,4 4th Court,0,https://nyu.edu,44.2990355,15.8462167
Jabberbean,ljessope6p@ameblo.jp,986 Ilene Hill,5,https://nytimes.com,55.045149,32.721561
Meezzy,esaffran6q@google.ca,5192 Sunfield Court,2,http://sun.com,-6.7116892,111.2815216
Rhynyx,rfarlam6r@google.com.br,6250 Tennessee Alley,3,http://sogou.com,51.5649604,32.9549585
Zava,bmoneypenny6s@cargocollective.com,280 Arizona Circle,3,https://slashdot.org,42.99082,46.632565
Shuffletag,gdevonald6t@wikispaces.com,9 Nova Terrace,4,https://boston.com,53.8819853,18.5517476
Meejo,selleyne6u@gmpg.org,26286 Hoard Way,2,http://google.it,8.9908333,150.1227778
Cogilith,lmaffiotti6v@e-recht24.de,8 Norway Maple Circle,2,http://fastcompany.com,-0.532915,166.944141
Jaxspan,aswetland6w@howstuffworks.com,49754 8th Road,1,https://patch.com,46.791046,4.840663
Janyx,kplowman6x@freewebs.com,71284 Kropf Center,3,http://woothemes.com,18.9331158,-70.4059336
Mydeo,bboyes6y@army.mil,2 East Lane,4,https://mac.com,2.9175611,101.6821575
Reallinks,kdunston6z@phoca.cz,64797 Petterle Center,2,https://ameblo.jp,-2.9218531,29.6252858
Jazzy,cmackilroe70@naver.com,4503 Twin Pines Junction,5,https://typepad.com,47.0615944,-0.8816138
Dabjam,hduckworth71@cyberchimps.com,591 Beilfuss Lane,3,http://list-manage.com,15.2958539,103.2940689
Meembee,tdavidsen72@amazon.co.jp,7176 Dovetail Plaza,1,http://diigo.com,35.5916647,37.0051383
Voomm,handren73@google.de,93 Forest Run Avenue,5,https://usatoday.com,39.494488,19.8722638
Dynazzy,ccaulket74@reference.com,0026 Menomonie Crossing,1,http://noaa.gov,41.0233069,80.2697382
Skyba,dscupham75@bigcartel.com,1672 Dunning Place,5,https://seattletimes.com,34.8582652,33.6007892
Agivu,skenyon76@wiley.com,070 Brentwood Court,1,https://cornell.edu,39.982718,117.078294
Blogspan,rhunnawill77@sphinn.com,54609 Harbort Trail,4,http://mediafire.com,41.117916,19.610198
Feednation,bscrancher78@columbia.edu,7 Lakewood Crossing,5,https://microsoft.com,26.6849798,100.7492159
Viva,stresise79@opera.com,5621 Derek Park,1,http://businessinsider.com,9.1860402,35.8334494
Plambee,brobilliard7a@google.com.hk,63 Roxbury Crossing,4,https://phoca.cz,-7.9655412,110.6008827
Devbug,ggrimster7b@google.com,9 Moland Hill,0,http://alibaba.com,30.600064,114.309091
Jamia,jbugge7c@walmart.com,878 Fairfield Parkway,4,http://is.gd,45.621716,122.851029
Feedfire,dblannin7d@oakley.com,3367 Roxbury Street,4,https://telegraph.co.uk,53.940892,-8.9480659
Blogspan,msterland7e@netscape.com,754 Morning Circle,4,https://wisc.edu,-6.7290837,111.3694594
Skimia,aluckie7f@dagondesign.com,1 Luster Alley,2,http://mapquest.com,42.284605,125.744735
Riffpedia,alumox7g@ihg.com,9 Hauk Terrace,5,https://google.nl,1.672033,125.055298
Brainbox,adulanty7h@netscape.com,26512 Buhler Center,4,http://biglobe.ne.jp,-14.91256,-69.874893
Brainbox,dbrine7i@ameblo.jp,178 Comanche Pass,5,https://mit.edu,31.239878,121.499673
Vitz,mdiver7j@yahoo.co.jp,493 Fair Oaks Road,4,https://google.ca,44.5241667,129.5688889
Brainverse,mhefner7k@skype.com,58221 Glacier Hill Avenue,2,http://bravesites.com,27.27476,-80.31823
Mudo,lcheavin7l@bbc.co.uk,4873 Glendale Way,1,http://webeden.co.uk,14.2042871,121.0829852
Gigabox,nwoodfield7m@symantec.com,6 8th Circle,5,https://acquirethisname.com,48.4590993,-67.4401254
Geba,eacutt7n@wikia.com,1249 Florence Place,5,http://studiopress.com,3.14405,101.69676
Quinu,mabazi7o@state.tx.us,0 Raven Point,4,https://canalblog.com,-14.3562,-75.6769489
Twitterworks,tfawckner7p@constantcontact.com,19 Londonderry Terrace,2,https://desdev.cn,8.9282133,-74.5697617
Midel,charbor7q@cdbaby.com,99185 Canary Plaza,0,https://github.io,42.4678076,-70.9844
Eamia,kduquesnay7r@si.edu,91 Columbus Court,5,https://archive.org,-22.65053,-60.129002
Skyba,rbresland7s@bizjournals.com,217 Tennessee Road,4,https://google.nl,59.2931754,17.9862008
Edgeclub,rborn7t@webnode.com,46105 Toban Court,5,https://myspace.com,40.432725,-8.296808
Babbleblab,rhaeslier7u@joomla.org,8948 Evergreen Place,5,http://over-blog.com,61.3611476,15.9055746
Blogtag,bscantlebury7v@sciencedaily.com,79 La Follette Parkway,1,https://dropbox.com,-20.5842082,-63.8950786
Izio,taggus7w@boston.com,2 Scoville Crossing,0,http://latimes.com,38.8822689,-77.142764
Centizu,hchildrens7x@google.fr,41568 Rusk Trail,1,https://fastcompany.com,-19.5097867,-41.0165586
Thoughtstorm,arodrigues7y@altervista.org,014 Northport Parkway,5,https://bbc.co.uk,16.8991985,121.7075195
Linkbuzz,arangall7z@blogger.com,5904 Nevada Circle,4,http://vkontakte.ru,-7.2758,107.1329
Flashset,nexposito80@yellowbook.com,9793 Hovde Alley,2,https://cmu.edu,-6.2003572,106.6166048
Zoonoodle,ssanper81@nyu.edu,1 Dakota Crossing,5,https://seattletimes.com,48.7699292,30.2154406
Cogidoo,lmoreno82@scribd.com,4864 Grasskamp Terrace,3,http://netvibes.com,43.2680529,44.2890544
Blogtags,ccharlon83@ehow.com,080 Judy Trail,4,http://instagram.com,38.6276904,22.7650721
Dazzlesphere,mmcalinion84@earthlink.net,6 Dottie Junction,5,http://psu.edu,6.9280156,79.8908308
Izio,jkench85@narod.ru,6 Harper Crossing,0,https://oracle.com,14.565668,121.0317737
Devify,tkennefick86@shareasale.com,55846 Debs Park,1,https://businessinsider.com,47.7129895,35.533341
Kayveo,mnelthorp87@artisteer.com,3 Northridge Avenue,4,http://amazon.co.jp,13.3846598,-88.5045477
Dabtype,fwarham88@alexa.com,04528 Dwight Hill,4,https://opensource.org,42.1072582,-72.5815752
Rooxo,blaboune89@cyberchimps.com,408 Wayridge Court,5,https://google.ru,30.169665,121.266579
Thoughtsphere,jgosart8a@scribd.com,4 Northport Place,0,http://acquirethisname.com,-0.3883464,109.7115472
Realblab,abeacham8b@vkontakte.ru,91 Commercial Junction,5,http://cbc.ca,-14.0648657,-42.4858867
Buzzster,jelliott8c@i2i.jp,0669 Aberg Junction,3,https://harvard.edu,1.3350205,34.3976356
Jaxnation,jvyse8d@bloomberg.com,8 Colorado Circle,1,http://uol.com.br,-26.7277949,-65.2739038
Reallinks,sfitzmaurice8e@dion.ne.jp,979 Bultman Street,2,http://furl.net,32.225262,35.070676
Jabberstorm,jgratrex8f@mozilla.org,139 Washington Road,3,https://fema.gov,24.726833,115.64556
Thoughtbeat,rastman8g@vkontakte.ru,659 Larry Center,5,https://desdev.cn,27.836154,121.157249
Eire,gbelloch8h@linkedin.com,68880 Homewood Road,5,https://shareasale.com,45.76468,-73.81156
Digitube,dtomaselli8i@digg.com,64 Fuller Point,1,http://huffingtonpost.com,32.478018,117.167563
Aibox,grushbrook8j@macromedia.com,04 Rusk Alley,3,https://comsenz.com,12.6643,125.0456
Twimbo,cstive8k@liveinternet.ru,658 Melvin Lane,5,http://linkedin.com,58.673928,17.105134
Browseblab,fonoland8l@cargocollective.com,9941 American Ash Place,2,https://statcounter.com,38.87,-77.23
Bubbletube,afiddymont8m@wix.com,64141 Swallow Center,1,http://smugmug.com,35.218292,106.653158
Thoughtmix,cjoron8n@dion.ne.jp,776 Truax Crossing,3,http://networksolutions.com,14.8221783,120.2851808
Skipstorm,sharford8o@diigo.com,134 Rigney Pass,2,http://prlog.org,-2.4204637,-79.3437394
Ainyx,adamp8p@shop-pro.jp,12 Prairieview Street,3,https://sogou.com,43.4945737,5.8978018
Chatterpoint,ffrushard8q@bizjournals.com,6 Amoth Center,2,https://zimbio.com,28.362805,118.400294
Youfeed,lworrill8r@indiatimes.com,9917 Dunning Park,3,http://ucoz.com,38.8978995,-77.0157837
Ailane,lcoulter8s@alibaba.com,7154 Kennedy Avenue,2,https://epa.gov,31.0600061,121.1161746
Devpoint,pmacsporran8t@howstuffworks.com,395 Gale Way,4,https://livejournal.com,29.731101,116.251947
Layo,rbutterly8u@skype.com,85388 Oxford Pass,1,https://google.fr,24.1477358,120.6736482
Vinte,bsextone8v@topsy.com,2014 Farwell Terrace,2,http://dell.com,40.2715286,44.633383
Oyope,rstelle8w@wiley.com,34 Miller Lane,0,https://squarespace.com,58.322001,12.3145938
Miboo,jrumin8x@whitehouse.gov,15380 Old Gate Street,2,https://123-reg.co.uk,13.6216631,-87.8991514
Yodo,lcombe8y@auda.org.au,13 Independence Terrace,3,https://umn.edu,0.845865,108.8796091
Thoughtworks,mcutriss8z@illinois.edu,0 Esch Pass,2,https://arstechnica.com,3.1035814,101.640078
Avamba,hmccomb90@nba.com,2 Glendale Lane,2,http://forbes.com,25.9400585,-80.2153998
Skimia,rgrigorio91@seesaa.net,4 Aberg Pass,0,http://merriam-webster.com,-13.479597,-72.1110396
Roomm,csteeples92@dmoz.org,8711 Vernon Hill,3,http://un.org,50.1544063,15.4602634
Jaloo,tdallmann93@ovh.net,4300 Dorton Lane,2,https://mlb.com,56.9438063,51.0642669
Demivee,bgreenrodd94@elpais.com,2 Corry Avenue,2,https://mozilla.com,37.97,-87.5699999
Blogtag,rcornhill95@google.co.jp,3 Delladonna Court,5,https://gnu.org,51.0026948,22.314478
Zoonoodle,pswin96@intel.com,6 Kim Parkway,0,http://economist.com,53.7902634,-6.2429997
Flashdog,cbautiste97@surveymonkey.com,93388 Hoepker Trail,4,https://psu.edu,36.9884302,25.0406679
Realbuzz,prichard98@mit.edu,3 Chive Park,3,https://skyrock.com,-21.7414439,-48.6891129
Devshare,mmcilvaney99@sun.com,0 Bay Lane,3,https://cam.ac.uk,-8.7817434,117.1147095
Yodoo,hcorsan9a@taobao.com,73099 Mariners Cove Avenue,3,https://geocities.jp,31.857198,112.180321
Mudo,ckeson9b@hostgator.com,042 Lindbergh Point,3,https://yellowbook.com,8.6884098,-8.6435589
Yakidoo,fspedding9c@xing.com,84012 Main Street,0,https://wp.com,52.1080018,35.7847305
Voomm,ciorio9d@omniture.com,89 Lyons Place,4,https://vistaprint.com,12.8074809,122.0553349
Fivebridge,jbenediktovich9e@seattletimes.com,3 Drewry Avenue,1,https://usnews.com,7.8910267,-11.9041439
Thoughtworks,eharpham9f@salon.com,754 Forest Run Street,2,http://digg.com,15.8303364,-91.7183488
Dynava,sgreenstead9g@example.com,5472 Kim Park,2,https://twitpic.com,35.4208388,136.6048742
Brightbean,dlickorish9h@alexa.com,053 Stang Center,4,http://google.es,6.0312787,7.5626411
Dabjam,pvany9i@php.net,5638 Pond Place,5,https://chicagotribune.com,31.352859,118.432941
Omba,ccamblin9j@php.net,073 Declaration Center,0,https://skype.com,65.059972,-13.9922895
Jaxnation,glynde9k@sitemeter.com,745 Twin Pines Road,0,http://state.gov,-7.666671,111.8359916
Babblestorm,mwhitten9l@ca.gov,608 North Place,0,http://earthlink.net,30.108216,104.677091
Yodo,dlambourne9m@wiley.com,6 Pennsylvania Crossing,3,https://tamu.edu,24.134518,111.485304
Oyoba,mwillbraham9n@redcross.org,52 Melby Center,0,http://mlb.com,18.4286115,-64.6184657
Gevee,dcajkler9o@oaic.gov.au,87240 Pankratz Junction,0,http://dropbox.com,23.41698,113.078569
Realbuzz,dpavlovic9p@comcast.net,823 Almo Junction,4,https://reuters.com,7.363608,124.783718
Aimbo,jgiffkins9q@acquirethisname.com,7 Maryland Court,0,https://blogspot.com,59.3019771,18.0885223
Mita,pcalendar9r@chronoengine.com,1629 Hoard Trail,5,http://blogs.com,19.4468231,-99.1303962
Yombu,rdomke9s@eepurl.com,9 Colorado Plaza,5,http://hp.com,-9.483333,-77.866667
Linkbuzz,gfounds9t@sciencedirect.com,3023 Hollow Ridge Parkway,3,http://woothemes.com,30.233195,121.329456
Abatz,lrawlence9u@addthis.com,6116 Crest Line Circle,5,http://sogou.com,39.109563,117.223371
Dynazzy,dkindall9v@independent.co.uk,1 Dapin Avenue,4,http://hhs.gov,14.740841,102.368115
Agimba,egatrill9w@devhub.com,32029 Warrior Terrace,1,https://bloglines.com,48.783333,132.933333
Chatterbridge,cgalbraith9x@washingtonpost.com,085 Clove Circle,5,http://wikimedia.org,49.9805725,19.5512903
Thoughtbeat,idunridge9y@japanpost.jp,6961 Bluestem Point,3,https://about.me,-22.7464475,-42.8613509
Jabbercube,hbramich9z@dot.gov,8059 Michigan Alley,5,http://marketwatch.com,46.7498338,-71.693538
Photospace,mdarcya0@rediff.com,017 Sutteridge Point,1,http://linkedin.com,55.675114,12.568064
Topicstorm,nhagwooda1@auda.org.au,8042 Transport Point,0,https://yolasite.com,45.0222956,39.1162056
Edgeclub,bcornalla2@live.com,27242 Linden Alley,0,http://scientificamerican.com,42.7989149,133.0298493
Yabox,nkenchingtona3@csmonitor.com,2680 Northridge Junction,0,http://vimeo.com,6.9815445,80.7647336
Tagfeed,vegentana4@naver.com,398 Melvin Junction,1,http://japanpost.jp,55.6795223,12.5752968
Jatri,djakoubeka5@yolasite.com,019 Anniversary Hill,0,http://usnews.com,29.7491757,-95.3632107
Meembee,mmuffena6@devhub.com,4 Mallory Center,5,https://1und1.de,58.629948,25.5572383
Blogspan,ebarensa7@nba.com,5 Ohio Plaza,3,https://hugedomains.com,0.393611,34.305278
Skyvu,jknatha8@stumbleupon.com,570 Arizona Street,2,http://cargocollective.com,50.25649,120.46231
Cogilith,bravenscrofta9@mapquest.com,49322 Novick Parkway,0,http://techcrunch.com,34.1614163,-118.5090867
Skinder,ctolanaa@google.de,09520 Golf Course Terrace,5,http://youtube.com,-7.7194317,109.0007407
Cogibox,mhatherleighab@4shared.com,41 Dunning Place,1,http://typepad.com,43.5211998,16.5578656
Centizu,ccourtonneac@china.com.cn,70 Bonner Drive,1,http://bigcartel.com,41.0108388,-8.5101632
Viva,swoollendsad@dion.ne.jp,77733 Oakridge Alley,1,http://blinklist.com,51.5623852,16.69165
Janyx,bmaccookae@mlb.com,07944 Cherokee Place,2,https://tinyurl.com,9.2610914,0.7770529
Babbleblab,platchaf@sun.com,81 Chinook Hill,5,https://deviantart.com,-11.8769261,43.4054565
Aivee,tpollackag@soup.io,5892 Surrey Way,3,https://live.com,7.1889377,124.6303406
Gabtune,ashearah@biblegateway.com,061 Prentice Center,3,http://twitter.com,-6.6111074,105.7703287
Voonyx,nscowcroftai@blogs.com,6547 Chinook Parkway,3,http://prnewswire.com,1.558031,110.382845
Twinder,cvereckeraj@shutterfly.com,1 Main Junction,3,https://amazon.de,7.02389,124.10028
Katz,rroseamanak@cnbc.com,9 Gerald Avenue,2,https://ox.ac.uk,46.747041,-71.459344
Aibox,ferringtonal@fda.gov,1016 Northview Center,1,http://com.com,6.8437702,125.2413578
Yodo,tpolinoam@nasa.gov,7 Cody Pass,2,http://delicious.com,-9.7732,123.8661
Meejo,cjacquotan@i2i.jp,35055 Corscot Road,1,http://behance.net,-9.2247779,-77.6478852
Meedoo,wgleetonao@hostgator.com,7 Dunning Lane,4,https://ow.ly,14.4142191,120.9495257
Yodel,jshepstoneap@biblegateway.com,10837 Brown Terrace,3,http://dedecms.com,26.9597709,49.5687416
Yata,ntabbernoraq@upenn.edu,418 Golf Hill,2,https://jiathis.com,7.6182738,100.3048897
Twitterlist,aroxburghar@angelfire.com,2 Gulseth Parkway,2,https://senate.gov,-34.625324,-58.5187733
Yoveo,kworldas@ftc.gov,93640 Dexter Circle,1,https://house.gov,14.5508865,121.0075554
Einti,dgreenstockat@sohu.com,6799 Marquette Hill,4,http://java.com,51.0003903,3.7139045
Mynte,matterau@hud.gov,90 Delladonna Crossing,4,https://deliciousdays.com,8.4430125,-82.3777335
Zoombox,dpaydonav@prweb.com,31077 Mandrake Court,2,http://imdb.com,52.695844,62.5884412
Kwinu,mcutforthaw@nsw.gov.au,403 Gina Avenue,1,https://sogou.com,40.827732,114.884994
Yakitri,tgjerdeax@google.com.au,20 Anzinger Street,0,http://over-blog.com,-10.5182,121.7895
Meedoo,alingwooday@patch.com,026 Rowland Avenue,3,https://dot.gov,30.946249,118.756589
BlogXS,tcridlanaz@home.pl,1 Macpherson Park,3,http://odnoklassniki.ru,36.5072263,8.7756556
Twitterbeat,rcantb0@weibo.com,4779 Hovde Crossing,0,http://rediff.com,18.4907917,-69.9603742
Edgeclub,ecrosenb1@barnesandnoble.com,65 Esch Parkway,2,http://gmpg.org,-20.9400441,-48.4812248
Browsecat,acurtonb2@github.com,94930 Lyons Trail,3,https://whitehouse.gov,22.454973,89.9437755
Eabox,mmolanb3@ibm.com,1 Rusk Way,5,https://prnewswire.com,51.3009866,16.9148091
Thoughtsphere,ocandelinb4@icio.us,9 Eggendart Hill,5,https://topsy.com,59.4871523,18.4207352
Yodoo,kglayzerb5@artisteer.com,8 Scoville Circle,5,http://house.gov,8.1620514,-12.4351923
Vipe,jtallowinb6@dell.com,2 Sachs Parkway,2,http://go.com,52.435251,4.8501344
Innotype,dludmannb7@shinystat.com,44512 Larry Plaza,3,http://soundcloud.com,28.708282,89.944038
Wikizz,dsoaresb8@oaic.gov.au,312 Ridge Oak Court,3,https://list-manage.com,13.2317498,123.7702587
Zoozzy,tveroniqueb9@godaddy.com,37614 Merchant Crossing,4,https://xinhuanet.com,41.7977426,-8.4531054
Livefish,gstorrockba@wired.com,53109 Artisan Circle,1,http://squidoo.com,36.0486399,140.2051504
Skyble,slyptradebb@java.com,8583 Graceland Lane,3,https://cafepress.com,49.808516,15.1855959
Nlounge,mmcgiffinbc@answers.com,3 Northwestern Place,5,https://4shared.com,38.582529,21.4467686
Realcube,rabrahamssonbd@wired.com,4081 Lukken Way,4,https://blogspot.com,-9.3095648,32.7689479
Wikido,bdenkbe@google.co.jp,751 Waywood Crossing,1,http://com.com,14.7252329,121.0400557
Yakitri,gvigarbf@virginia.edu,01 Lunder Place,2,http://cisco.com,39.9368237,116.4442945
Wordify,flearoidbg@usnews.com,5 Autumn Leaf Center,1,https://discuz.net,30.674124,111.172529
Mydeo,cmanuelbh@cam.ac.uk,89 Summit Hill,3,http://marriott.com,32.97746,35.33345
Browsecat,omosleybi@illinois.edu,1536 Crownhardt Alley,1,https://alexa.com,43.804723,4.401981
Trilia,rnerneybj@accuweather.com,9 Heffernan Circle,1,http://cafepress.com,57.162312,23.2197229
Skippad,aburnettbk@mac.com,22 Corben Park,4,http://latimes.com,10.149672,123.279336
Topdrive,jbeddingbl@noaa.gov,87 Shasta Junction,5,http://foxnews.com,14.8648,32.3668
Gigazoom,dnestlebm@bloomberg.com,3796 Roxbury Park,0,http://businessinsider.com,53.7002,102.7117
Wikido,rposenbn@ucoz.ru,7 Thierer Road,1,http://dagondesign.com,17.9567646,-102.1943485
Bubbletube,cadamekbo@twitter.com,0411 Brickson Park Road,1,https://discuz.net,-23.4602881,-45.0479872
Eazzy,mmchargbp@ocn.ne.jp,922 Dryden Junction,4,http://wiley.com,14.9247834,-85.692279
Twimbo,pcranstonbq@bigcartel.com,42317 Hovde Place,5,http://so-net.ne.jp,8.0599142,-6.1898262
Thoughtstorm,chanburrybr@cloudflare.com,9638 Veith Crossing,0,http://amazon.co.jp,-7.1665502,111.9969626
Realbridge,vsantarellibs@multiply.com,60 Carberry Circle,4,https://wiley.com,10.1096551,99.822979
Demivee,aburdekinbt@cdc.gov,126 Westend Hill,1,https://google.ca,30.798325,107.96879
Skyble,jsandbachbu@vistaprint.com,212 Johnson Trail,1,http://webeden.co.uk,51.4992969,16.0446727
Trudoo,relsegoodbv@japanpost.jp,24160 Coleman Circle,1,http://buzzfeed.com,30.174004,122.039055
Wikido,bdavagebw@sogou.com,5 Rusk Terrace,1,https://google.pl,-7.9839081,112.6213938
Jabberstorm,mhabletbx@theglobeandmail.com,186 Northridge Drive,0,https://merriam-webster.com,14.7793575,121.0489884
Realblab,btrenamby@forbes.com,4753 Montana Plaza,5,https://cornell.edu,28.572029,109.482078
Reallinks,fkeelybz@hibu.com,4 Homewood Street,4,http://free.fr,-13.674114,-71.6777177
Wikizz,jjerokc0@guardian.co.uk,84063 Cascade Avenue,2,http://hud.gov,37.9703906,24.0077427
Oyope,bjoyec1@alexa.com,017 Farragut Circle,2,https://storify.com,26.048803,116.619923
Devpoint,julyatc2@indiegogo.com,0 Westridge Terrace,5,http://icq.com,52.9918299,43.6510502
Wikizz,dmathisc3@privacy.gov.au,5 Melby Trail,2,http://icio.us,13.1806725,-16.7559004
Yodoo,wrobbsc4@privacy.gov.au,2 Shoshone Lane,5,http://google.com,45.7967858,4.8427596
Zoomdog,hsaddingtonc5@ibm.com,0090 Talisman Park,3,http://pinterest.com,13.3666668,122.6500015
Wordtune,nbarterc6@rambler.ru,27152 Fallview Crossing,5,https://cmu.edu,50.119593,12.3484445
Fivebridge,rheitzc7@drupal.org,4 7th Trail,4,http://spotify.com,53.4167481,83.5264334
Divanoodle,ehandrickc8@columbia.edu,95760 Summer Ridge Crossing,1,http://reddit.com,-3.4603809,-44.8721875
Oyope,afeldhammerc9@hc360.com,629 Riverside Terrace,4,https://hubpages.com,43.3209022,21.8957589
Fivechat,adallynca@admin.ch,3651 Schmedeman Plaza,0,https://moonfruit.com,50.3422678,13.9673223
Photobug,aaliberticb@indiegogo.com,68024 Mccormick Center,2,http://1688.com,-11.8532073,-75.508016
Twitterwire,jrolstoncc@facebook.com,45269 Bayside Road,5,https://answers.com,53.8964099,16.8352157
Feednation,evonhelmholtzcd@ted.com,504 Bellgrove Circle,3,https://ox.ac.uk,29.2565637,48.062605
Realmix,abordmance@ustream.tv,8 Arkansas Park,3,http://wordpress.com,-7.0511949,111.2517127
Tagchat,fruperticf@soundcloud.com,17 Mifflin Terrace,0,http://rakuten.co.jp,46.9125516,37.1045934
Skalith,drablincg@globo.com,57530 Springview Alley,2,https://soundcloud.com,10.3793903,106.4541903
Zoozzy,acarnierch@storify.com,2 Green Ridge Alley,5,https://shutterfly.com,-8.5979954,114.3460283
Kwilith,gmacgiollapheadairci@walmart.com,888 Schiller Parkway,2,http://bizjournals.com,-6.3486919,106.0419754
Quamba,fbailescj@jimdo.com,96799 Haas Hill,1,https://google.cn,49.663978,90.2905901
Yamia,eheggmanck@yelp.com,431 Nevada Alley,4,https://umn.edu,-28.5323842,26.9999584
Viva,htrevoncl@ameblo.jp,81 David Way,4,http://fotki.com,50.7911439,15.0266516
Aivee,asuttiecm@msu.edu,8168 Lighthouse Bay Crossing,3,http://flickr.com,13.8506865,44.7029603
Skinte,dgentilecn@1und1.de,39 Vernon Alley,2,http://homestead.com,43.6746011,3.9826826
Pixonyx,rnewlandsco@slate.com,8662 Hudson Point,0,https://redcross.org,-38.0065623,-57.5753755
Yata,ebatkincp@google.com,173 Kim Point,4,http://shareasale.com,32.7074464,108.9391253
Oyope,mherremacq@oakley.com,9 Kipling Plaza,2,http://indiegogo.com,43.2916776,-0.3696612
Quire,smaccaughencr@desdev.cn,81 Rockefeller Point,4,https://hubpages.com,42.4090329,20.7487901
Tagfeed,bbradburnecs@yale.edu,7124 Forest Park,0,http://drupal.org,50.24979,-118.96904
Yabox,mderellct@google.com,1 Fair Oaks Pass,5,http://about.com,57.2992579,39.8548496
Jabberstorm,pmunsoncu@uol.com.br,8 Calypso Street,2,https://a8.net,23.790902,114.946019
Leenti,kosemancv@wisc.edu,6490 Sycamore Road,5,http://harvard.edu,46.2524306,109.4245979
Roombo,ftoffolonicw@usnews.com,74 Drewry Drive,3,http://51.la,39.9317949,116.4559849
Jabberstorm,teyckelbergcx@ft.com,4390 Charing Cross Trail,3,http://loc.gov,18.7744983,98.9989307
Yozio,cgovercy@technorati.com,81537 South Parkway,5,https://macromedia.com,34.34099,69.4377
Talane,fkorpolakcz@un.org,5244 Maple Plaza,1,http://twitter.com,32.018685,120.835617
Ntag,mjacksd0@gov.uk,603 Rowland Alley,0,https://purevolume.com,30.037192,121.154634
Einti,fdurdyd1@posterous.com,59 Vernon Point,3,https://dell.com,-2.0133843,-45.9991326
Thoughtsphere,icarousd2@chronoengine.com,321 Vidon Trail,5,https://zdnet.com,52.13342,-113.8687
Camimbo,cinglesfieldd3@hatena.ne.jp,55 Brentwood Way,2,http://salon.com,50.4009139,25.7590674
Skimia,overnalld4@topsy.com,3877 Monument Junction,5,https://printfriendly.com,46.1223915,-74.5838514
Skyble,rlarmouthd5@unesco.org,2503 Sachs Place,5,http://unesco.org,-21.4206681,15.9523622
Feedfire,nstoryd6@wiley.com,27102 Judy Drive,0,http://yahoo.co.jp,22.517585,113.39277
Flashspan,gcurgenuerd7@nsw.gov.au,2 Independence Center,2,https://twitpic.com,13.1529217,10.6351404
Demizz,awintersd8@symantec.com,6552 Amoth Hill,0,https://reverbnation.com,-21.5447866,167.8854865
Ntags,cgalsworthyd9@oracle.com,7 American Lane,3,http://nytimes.com,-7.5557614,111.4469654
Vidoo,dmcgauganda@themeforest.net,26 Shasta Avenue,3,https://qq.com,50.6735414,21.0463888
Zazio,bgobledb@webeden.co.uk,997 Huxley Terrace,2,https://topsy.com,-20.7175404,-47.8858187
Rhyloo,mdommerquedc@wsj.com,5670 Bartelt Lane,0,https://who.int,35.9673629,139.6162456
Izio,mzorzuttidd@wisc.edu,76150 Fordem Street,0,http://de.vu,33.1556108,-7.3860994
Feedfish,caspinallde@studiopress.com,6192 Holmberg Circle,3,https://youku.com,37.7700101,-25.6598704
Quimba,csnapedf@sitemeter.com,19 Banding Court,1,https://sohu.com,13.6986477,30.3723741
Oyoyo,lwinwarddg@yahoo.co.jp,113 Valley Edge Avenue,2,https://umn.edu,40.2115069,19.6892266
Skyba,caerydh@free.fr,7 Jackson Avenue,1,http://nba.com,28.65664,108.504872
Gabvine,jgawkesdi@tmall.com,6572 Jackson Point,4,http://barnesandnoble.com,-3.1045962,119.8524988
Twimbo,hhallickdj@umich.edu,91872 Grayhawk Way,3,https://tuttocitta.it,-12.7902832,45.1050487
Ainyx,avelldk@simplemachines.org,24 Crescent Oaks Plaza,3,https://cbsnews.com,56.854995,26.2255149
Edgewire,rhardisondl@who.int,38 Lukken Parkway,0,http://google.com.br,14.6484972,121.0782757
Trilia,mnurnydm@pinterest.com,78 Blue Bill Park Lane,3,https://free.fr,24.77848,110.496593
Rhycero,smanterfielddn@pen.io,7604 Anderson Junction,4,https://seattletimes.com,40.9141247,20.7427213
Quimm,dboigdo@webnode.com,251 Gulseth Point,5,https://yale.edu,43.3216087,-8.434873
Skibox,garnidp@nifty.com,028 Clarendon Crossing,3,http://google.ru,15.4097396,104.9201205
Skimia,jsimenotdq@twitter.com,1 Carioca Crossing,3,https://nba.com,16.289185,119.90559
Twitternation,kstallwooddr@bloglines.com,888 Fair Oaks Pass,5,https://dell.com,-6.8416993,-70.2408325
Voolith,eshimmansds@1und1.de,5379 Marcy Trail,3,http://facebook.com,16.5544,44.29048
Yadel,mjendrassikdt@chicagotribune.com,38430 Dottie Point,4,https://typepad.com,23.725445,116.209841
Myworks,fneathwaydu@bluehost.com,11 Laurel Drive,5,http://domainmarket.com,15.3098074,120.8551691
Tavu,uraunddv@ustream.tv,64383 Melrose Street,3,http://vkontakte.ru,10.151,122.9978
Flipstorm,erosellidw@va.gov,43672 Butterfield Parkway,5,https://ebay.com,52.145887,25.5329454
Gabtune,amechelldx@mysql.com,67227 Melrose Point,2,https://who.int,29.627993,111.915162
JumpXS,sduffittdy@technorati.com,67 Alpine Trail,0,http://hatena.ne.jp,24.0576707,89.8762377
Wikivu,bwiggdz@npr.org,18324 Towne Point,4,https://hao123.com,30.849762,116.359692
Skimia,cbreffitte0@nsw.gov.au,7 Grover Alley,0,https://adobe.com,37.9811976,106.1970149
Kazu,dkerfoote1@domainmarket.com,6725 Jay Terrace,5,http://so-net.ne.jp,32.770894,119.745363
Quatz,mcorre2@etsy.com,21 Sage Park,3,https://accuweather.com,15.3680416,-87.9383822
Skipfire,mbarthelemye3@sogou.com,8 Birchwood Hill,0,https://icq.com,59.5403823,30.8896701
Demimbu,mcattone4@boston.com,408 Rieder Junction,4,http://telegraph.co.uk,-6.576574,111.0683954
Brightbean,dhoulahane5@jigsy.com,03012 Meadow Ridge Trail,3,https://tinypic.com,29.0654415,120.2512222
Rhynoodle,jgarbare6@eventbrite.com,52 Nobel Road,0,https://godaddy.com,-4.1710664,139.4415168
Jetwire,akennaghe7@nifty.com,8 Moulton Trail,3,https://blinklist.com,25.606486,100.267638
Yambee,bjoaoe8@howstuffworks.com,629 Dunning Drive,0,https://boston.com,29.476705,121.869339
Flashdog,lswigge9@cloudflare.com,154 Evergreen Point,4,https://ezinearticles.com,62.3946271,17.2842162
Quire,mgillaspyea@homestead.com,15 Glendale Terrace,0,http://time.com,48.6939078,2.3491182
Oloo,gmileseb@g.co,86401 Cottonwood Parkway,2,http://cafepress.com,56.91683,-117.61945
Twitterworks,hpassmanec@toplist.cz,9265 Dexter Pass,3,https://histats.com,59.1308951,31.8512437
Zooxo,htrameled@dyndns.org,02 Moulton Street,3,http://mediafire.com,41.6409278,-8.5624704
Meejo,dpinnegaree@statcounter.com,239 Forster Alley,1,https://apache.org,42.2098979,20.7400297
Npath,dmoutrayreadef@google.ru,7170 Glacier Hill Avenue,5,http://cbslocal.com,56.6444907,14.224297
Skimia,ttibolseg@bravesites.com,49481 Twin Pines Hill,2,http://yale.edu,49.9458951,17.0618602
Dynazzy,jcrowcombeeh@ning.com,2 Gerald Place,2,https://java.com,36.077544,120.008307
Rhyzio,dbatteei@cbsnews.com,3871 Fremont Place,2,https://cargocollective.com,17.1782591,102.5704008
Flipbug,jbromleyej@nsw.gov.au,1 Basil Street,5,http://feedburner.com,46.3601437,32.3522621
Mita,moshielek@fda.gov,31802 Chinook Avenue,5,http://blog.com,14.6276215,-87.6075294
Flashdog,tgeevesel@furl.net,95 Kipling Center,5,http://infoseek.co.jp,39.3096699,-7.4404863
Skinder,aboydellem@arstechnica.com,8 Rigney Way,5,https://creativecommons.org,-2.4431287,114.2152731
Ntag,rmackieen@mediafire.com,5853 Lien Court,3,http://answers.com,19.4458447,-99.1497664
Talane,udunkinsoneo@go.com,892 Springs Plaza,5,http://nifty.com,35.981548,139.7460429
Meetz,dschankelborgep@nifty.com,118 Cherokee Trail,1,http://ft.com,32.81236,35.258613
Yakitri,bbulcockeq@canalblog.com,8910 Bluestem Place,3,https://shareasale.com,-8.3647,123.5718
Demizz,mshawdforther@google.de,445 Haas Point,1,http://cdc.gov,13.5776734,100.6149501
Devpulse,lbuckenhilles@topsy.com,27739 Green Place,5,http://themeforest.net,39.309746,115.958784
Yodoo,frawstorneet@omniture.com,86 Schurz Terrace,3,https://marriott.com,-7.45,108.033333
Rooxo,alowbridgeeu@xrea.com,9914 Forest Run Road,4,https://npr.org,53.2198089,63.6354232
Demizz,smartindaleev@yellowpages.com,52 Kensington Crossing,0,https://bing.com,53.1405147,21.0511534
Gabspot,agebhardew@hud.gov,06918 Swallow Court,5,http://un.org,-3.5564921,-80.4270885
Ailane,skirmondex@twitter.com,3977 Sherman Way,3,http://si.edu,22.170437,111.791539
Buzzster,lokeyey@goo.ne.jp,347 Esker Way,4,https://theguardian.com,60.3428116,30.4896784
Trilith,kblakesleyez@squarespace.com,20 Melody Crossing,0,https://flickr.com,-13.68828,-72.019989
Bluezoom,bdeknevetf0@reverbnation.com,4177 Ruskin Drive,4,https://joomla.org,-38.9351182,-68.2320043
Roombo,chedlestonef1@tinyurl.com,9827 Burning Wood Way,5,https://ebay.com,-7.6552991,109.9288452
Vinder,wbewickf2@twitter.com,8352 Grover Hill,0,http://amazon.co.uk,50.2414199,25.7622611
Kimia,osmithiesf3@dailymotion.com,29 Schlimgen Junction,3,http://shop-pro.jp,34.361988,108.737212
Npath,ktimnyf4@theglobeandmail.com,9 Fuller Court,0,https://java.com,-7.2789,107.0659
Flipopia,ieckersleyf5@accuweather.com,330 Tony Way,4,https://weibo.com,12.1929841,-61.7020265
Brainsphere,mewingsf6@over-blog.com,231 Bayside Crossing,5,http://bluehost.com,6.39035,126.14558
Yata,dpitrollof7@surveymonkey.com,6 Burrows Plaza,0,http://admin.ch,-14.5205297,-75.2019585
Demivee,lmulvaghf8@archive.org,67 1st Plaza,1,https://fema.gov,-8.154229,111.7778618
Oyoba,cmacbarronf9@sbwire.com,77 Westend Drive,1,https://senate.gov,54.8098373,36.3116274
Jabberstorm,nbarnettfa@unc.edu,35 Sachs Alley,4,https://cbslocal.com,48.7471816,2.3572729
Thoughtstorm,csiehardfb@unblog.fr,93 Shelley Alley,1,http://independent.co.uk,44.0970463,21.4322091
Flashpoint,msebirefc@uiuc.edu,736 Ridgeview Park,3,http://cnn.com,41.3009263,-95.8881542
Podcat,jwestphalenfd@cocolog-nifty.com,670 School Junction,2,http://sogou.com,-10.5822,121.8062
Voomm,chentzelerfe@exblog.jp,335 Cody Court,0,http://networksolutions.com,32.809026,110.112629
Tekfly,dlewsamff@cnbc.com,58941 Brentwood Way,5,http://arizona.edu,13.751166,121.0645073
Jetwire,dyakubovichfg@alexa.com,7219 Artisan Circle,0,http://ow.ly,-7.703889,36.9565089
Skynoodle,ggosartfh@amazon.co.uk,04 Moland Circle,3,https://1und1.de,47.4906719,15.39185
Voonder,aroullierfi@topsy.com,59504 Carioca Place,5,http://friendfeed.com,29.330041,119.334789
Feedfire,hfairhamfj@google.es,30932 Springs Alley,1,https://dagondesign.com,30.419045,120.299401
Devcast,jollierfk@cargocollective.com,29 Elmside Lane,3,https://google.com,32.060255,118.796877
Katz,mbeynkefl@odnoklassniki.ru,2 Arizona Drive,3,http://squarespace.com,59.3947609,5.3329119
Realbridge,bburrellfm@springer.com,15 Alpine Way,4,https://xing.com,15.6927248,119.9351455
Kazio,ttoefn@cbc.ca,7 Old Gate Drive,4,https://sbwire.com,-21.8421051,-47.4710798
Trupe,agristfo@unc.edu,98 Pepper Wood Junction,3,https://washingtonpost.com,40.621506,119.9745295
Jetwire,colesfp@wordpress.org,382 Buena Vista Plaza,2,http://xrea.com,28.852393,85.297534
Twitterworks,eglasscoofq@vk.com,2427 Washington Junction,5,https://fc2.com,13.2317498,123.7702587
Flashdog,scowndenfr@statcounter.com,891 Iowa Center,0,http://fastcompany.com,34.341574,108.93977
Voomm,tbrennenstuhlfs@cbslocal.com,47 Summerview Terrace,5,http://flavors.me,50.6398985,15.8196702
Shufflester,lklichft@studiopress.com,91985 North Park,0,https://diigo.com,6.9421349,1.6736397
Rhyloo,icoronadofu@acquirethisname.com,4 Heath Road,2,https://engadget.com,13.616911,123.487615
Quimm,llehrahanfv@scientificamerican.com,0960 Ridgeway Place,2,https://economist.com,56.2807392,14.5530718
Rhynyx,kwyardfw@digg.com,221 Chinook Hill,2,https://auda.org.au,-4.76732,11.8627984
Chatterbridge,ngladhillfx@admin.ch,04553 Knutson Plaza,4,http://4shared.com,14.4711923,121.0206914
Oyonder,asollamfy@booking.com,2 Northridge Way,5,https://live.com,-8.401854,114.118103
Edgewire,tcaserfz@photobucket.com,0 Elka Alley,3,https://tuttocitta.it,36.284107,100.620031
Babbleblab,bwyndhamg0@chronoengine.com,7 Stang Circle,0,https://xing.com,27.1574303,117.3011656
Fivebridge,cgowlettg1@mac.com,653 Talmadge Crossing,1,https://moonfruit.com,-0.69832,-77.14083
Zoozzy,lgiovannaccig2@princeton.edu,00121 Everett Crossing,1,https://ow.ly,43.974344,1.7811783
Wikizz,skittmang3@tumblr.com,91741 Eagan Lane,1,https://sun.com,50.0385516,14.0470364
Kayveo,rcressarg4@t-online.de,76534 Carioca Lane,4,https://liveinternet.ru,36.761028,22.563999
Shufflester,aharlandg5@statcounter.com,1451 Crownhardt Parkway,5,http://loc.gov,-6.5643956,106.2522143
Zoomlounge,gcrozierg6@state.tx.us,1 Mandrake Point,0,http://google.pl,62.930833,152.385
Voonyx,dgocherg7@storify.com,1 Esch Drive,3,http://nbcnews.com,37.347409,115.965874
Roombo,lpavyg8@ow.ly,79 Fairfield Drive,4,http://about.me,48.1525702,23.1369121
Fanoodle,jvasilkovg9@instagram.com,3 Vera Circle,3,https://flavors.me,29.042269,121.626963
Wordify,fkenrackga@nps.gov,49 3rd Lane,5,http://topsy.com,50.7784708,16.0928295
Dynabox,dtyttertongb@wufoo.com,97769 Johnson Place,0,http://so-net.ne.jp,-8.0600591,112.2890705
Livefish,ftimoneygc@xrea.com,2958 Ludington Center,2,https://cam.ac.uk,-12.3992902,-74.8659421
Jaxspan,cbraunsgd@theatlantic.com,01940 Spaight Pass,5,http://typepad.com,28.369399,116.546998
Quatz,htokellge@hubpages.com,397 Mallory Junction,0,http://sbwire.com,5.3523231,100.3573891
Brainbox,wcoalbrangf@pinterest.com,3433 Jay Way,3,https://ifeng.com,-8.5697306,123.3991028
Feedfire,skeymergg@ed.gov,1 Anhalt Center,2,https://un.org,50.8426863,20.8627188
Flipstorm,dmerrisongh@storify.com,52 Stuart Crossing,0,http://bing.com,50.3539812,13.8033551
Zava,klejeangi@twitpic.com,1159 Hooker Alley,4,https://shop-pro.jp,35.7029747,53.3420351
Fadeo,cslocomgj@usnews.com,90 Mcguire Street,5,https://who.int,59.2891092,18.0509133
Vipe,bmochangk@accuweather.com,99172 Kenwood Terrace,0,https://rediff.com,46.5210948,32.5201269
Kanoodle,neaglestongl@prlog.org,60 Nobel Point,1,http://google.ca,39.4365442,-9.2134149
Yacero,estarmergm@blogspot.com,4 Morning Park,2,http://cbslocal.com,-21.4152377,-50.0773225
Abata,mhatrickgn@bandcamp.com,78 Starling Terrace,4,http://soup.io,35.580996,116.986503
Buzzdog,ewycherleygo@epa.gov,71538 Onsgard Park,2,http://state.gov,6.7885037,124.8730516
Voonix,fmarcqgp@google.com,97342 Coleman Parkway,5,https://tinypic.com,39.293263,117.32162
Oyoba,gstainbridgegq@mozilla.com,9 Coleman Trail,2,http://mit.edu,-23.4209995,-51.9330558
Eadel,zpowlandgr@com.com,296 Old Shore Plaza,5,https://telegraph.co.uk,44.5765376,34.3431531
Tagfeed,rpondgs@weibo.com,9662 Muir Alley,0,https://sun.com,-6.9812818,112.87907
Tagtune,dknevetgt@google.co.jp,2061 Atwood Crossing,0,https://msu.edu,34.26645,108.960747
Brightdog,jgrinaughgu@tmall.com,414 Hagan Junction,0,http://plala.or.jp,48.0288905,123.0199373
Browsezoom,minchgv@pagesperso-orange.fr,65939 Cottonwood Crossing,4,https://1688.com,-22.9098833,-47.0625812
DabZ,mdungeegw@taobao.com,0 Sutteridge Lane,4,https://shareasale.com,35.6603089,137.0242535
Rooxo,arieflingx@bigcartel.com,59562 Havey Junction,0,http://linkedin.com,23.144757,113.253429
Reallinks,ieadmeadgy@youtu.be,68 Kingsford Terrace,1,http://phpbb.com,11.6497994,4.0644352
Zoonoodle,wseilmanngz@fema.gov,3241 Sycamore Park,2,https://mashable.com,21.1753431,105.7308045
Edgewire,llamprechth0@google.it,6454 Brentwood Circle,1,https://hugedomains.com,28.79188,98.397783
Yadel,bredfordh1@marriott.com,7 Laurel Street,3,https://artisteer.com,13.3649688,-86.3959473
Eire,nlauthianh2@webnode.com,0889 Dayton Way,0,https://columbia.edu,37.7162538,-97.2983363
Bluejam,fpleath3@so-net.ne.jp,13875 Jana Park,3,https://spotify.com,-2.9001285,-79.0058965
Edgewire,jmcveeh4@hc360.com,00883 Schmedeman Way,0,http://tinyurl.com,16.3496709,-98.0587939
Vinte,bjewiseh5@upenn.edu,14 Commercial Trail,5,http://simplemachines.org,6.5959532,3.5033042
Zoonder,jstanlickh6@ucoz.ru,7776 Crowley Park,5,https://diigo.com,8.972681,125.408732
Flashspan,cbunkerh7@odnoklassniki.ru,5 Haas Way,4,https://vinaora.com,31.6318053,121.4138789
Topicshots,gposnetth8@auda.org.au,198 Mayer Alley,5,https://umn.edu,-8.2154626,115.376643
Photobug,jrusheh9@whitehouse.gov,70 Portage Court,2,http://artisteer.com,45.2671352,19.8335496
Voonder,tpilipetsha@indiegogo.com,92 Linden Street,1,http://ifeng.com,46.791555,15.379192
Oloo,lakredhb@dedecms.com,794 Holy Cross Hill,4,https://123-reg.co.uk,27.999411,115.932899
Dazzlesphere,fworledgehc@pagesperso-orange.fr,65716 Farwell Lane,1,http://bloglines.com,-26.433666,29.460311
Camido,mackredhd@gov.uk,82163 Crescent Oaks Trail,5,http://over-blog.com,42.8746212,74.5697617
Plajo,psnepphe@domainmarket.com,86 Raven Parkway,1,http://ed.gov,53.3122864,-6.336393
Latz,njanowiczhf@tmall.com,107 Cordelia Alley,4,https://slate.com,22.513701,113.398577
Flashdog,rtarbetthg@angelfire.com,9156 Golf Road,2,http://tumblr.com,37.856971,113.580519
Rhybox,kselesnickhh@samsung.com,15851 Harper Street,2,https://multiply.com,30.2915328,-97.7688358
Flashdog,mriggeardhi@eventbrite.com,06 Fulton Street,1,https://tmall.com,-6.5301408,-76.7206652
Skiba,cdemelthj@mozilla.com,05 Crescent Oaks Trail,1,https://theguardian.com,49.6651197,18.0504041
Layo,hpurbrickhk@house.gov,5979 Mayfield Circle,3,http://dagondesign.com,-8.053523,111.8598395
Dabjam,tkanterhl@icio.us,0 Texas Park,1,http://indiegogo.com,28.924679,115.245001
Tagcat,pjaqueshm@g.co,64 Almo Parkway,5,https://netvibes.com,20.1871897,-75.8475853
Wordtune,gterzohn@gizmodo.com,29 Pleasure Junction,0,http://techcrunch.com,44.7875436,19.4380057
Fivebridge,lwederellho@walmart.com,242 Memorial Way,0,https://sfgate.com,41.2471491,71.5427212
Quaxo,scrannahp@sciencedirect.com,678 Fieldstone Point,5,https://wufoo.com,-21.5418158,-42.1837129
Eazzy,ecoltarthq@dion.ne.jp,8968 Spaight Street,5,https://dedecms.com,-17.3652664,30.1935663
Browsecat,besmeadhr@aboutads.info,69 Briar Crest Center,5,http://tripod.com,33.4658131,-112.0244867
Yakitri,gborleshs@wikispaces.com,74356 West Place,1,https://cafepress.com,35.761829,115.029215
Tekfly,iwinsomeht@mozilla.com,42 Kenwood Pass,4,http://amazon.de,-9.7089,124.2564
Brightbean,rdomaschkehu@examiner.com,54 Karstens Terrace,1,http://businessweek.com,32.78,-96.8
Abatz,fhardeshv@opera.com,07688 Texas Court,4,https://1688.com,49.7647258,16.9050077
Skyvu,mthonhw@flickr.com,3 Bobwhite Terrace,1,https://smugmug.com,24.660711,118.460176
Twitterlist,mwaitonhx@irs.gov,917 Nelson Alley,2,https://wikimedia.org,-8.0650276,113.8011498
Gabtune,rsacasehy@bloglovin.com,10558 Golf View Crossing,0,http://studiopress.com,16.2584167,97.725376
Quaxo,cgolbornehz@china.com.cn,57 Esker Park,0,https://wufoo.com,28.590337,105.697472
Zoozzy,streadwayi0@ucsd.edu,864 Johnson Junction,4,http://toplist.cz,47.7787755,27.8884238
Roomm,kbrassingtoni1@imdb.com,85 Maple Parkway,2,http://digg.com,-33.4907417,22.5304693
Brightdog,dbroadleyi2@squarespace.com,37 Grayhawk Circle,2,http://yandex.ru,39.630867,118.180193
Mudo,ghoulaghani3@hatena.ne.jp,20504 Helena Hill,4,http://t-online.de,32.848472,96.583409
Kare,mtosdevini4@cnn.com,6 Little Fleur Junction,0,http://spotify.com,37.8163881,66.0285106
Wordware,lgaitungi5@cyberchimps.com,043 Longview Junction,3,http://ameblo.jp,6.4387946,100.1947477
Meevee,acourtesei6@nasa.gov,60729 Londonderry Point,3,https://1688.com,24.789361,103.140748
Roombo,nboffeyi7@bbc.co.uk,7 Farmco Trail,1,https://accuweather.com,30.6569282,104.0779484
Shuffledrive,wlanderi8@bbb.org,3014 Oriole Crossing,5,https://prweb.com,32.903454,-117.2195678
Gigashots,aposselwhitei9@marketwatch.com,92873 Di Loreto Trail,5,https://intel.com,-8.4769874,123.0845277
Geba,hschulkeia@ucoz.ru,2 Linden Court,3,http://squarespace.com,34.5746319,133.2313846
Voonder,djanczakib@state.gov,3 Judy Hill,5,https://illinois.edu,34.7487164,134.0793911
Tagopia,edinegesic@house.gov,57 Lakeland Point,3,https://intel.com,25.822349,107.322323
Yadel,pbjerkanid@umn.edu,42293 Spenser Road,2,https://cdc.gov,30.6514558,104.08491
Shuffletag,hdeblasiie@sciencedaily.com,41838 Sunfield Point,5,http://sitemeter.com,29.5530941,118.9353968
Jabberbean,pscrangeif@examiner.com,6 Warbler Junction,1,https://state.gov,23.254488,116.370159
Shufflebeat,ckynstonig@census.gov,3 Bunker Hill Lane,0,https://stanford.edu,43.9480111,39.3104788
Roomm,gdumbarih@phpbb.com,6 Lakewood Gardens Circle,2,https://tamu.edu,34.477861,110.084789
Photobug,cgemmillii@exblog.jp,77558 Hovde Place,1,https://webnode.com,-7.0631844,107.7843483
Tagtune,vdanterij@cargocollective.com,781 Reindahl Terrace,1,http://jigsy.com,-8.2497955,112.673499
Dablist,sblakeneyik@acquirethisname.com,79863 Lien Hill,1,http://hud.gov,41.0108388,-8.5101632
Jabberbean,ddubiqueil@digg.com,51 Bluejay Road,4,https://netlog.com,31.067673,121.567646
Mynte,utotterdillim@va.gov,7 Dayton Parkway,2,http://technorati.com,41.6111031,45.9271436
Gigabox,aeastopin@eepurl.com,73521 Fairview Lane,4,http://biglobe.ne.jp,43.4627537,43.0377128
Cogilith,sbiaggettiio@theglobeandmail.com,470 Lakewood Place,1,http://wikispaces.com,11.3799005,5.6457951
Layo,gguidenip@shinystat.com,7837 Maple Wood Trail,0,https://slashdot.org,49.1441362,6.1519975
Fliptune,mdougilliq@ebay.co.uk,470 Talisman Point,4,http://usatoday.com,61.243306,46.900459
Kwilith,eeddieir@angelfire.com,6519 Riverside Road,5,https://aboutads.info,3.0070658,131.1237781
Tagfeed,aohanessianis@bbb.org,1 Hazelcrest Crossing,4,https://bing.com,54.0962372,18.82934
Kazio,mgiacomozzoit@utexas.edu,639 Lawn Plaza,3,https://angelfire.com,-6.9955768,112.2950314
Shuffletag,cgammackiu@narod.ru,73126 Ohio Junction,5,http://a8.net,40.888872,19.5181312
Trunyx,mhuygeniv@list-manage.com,734 Dorton Place,1,https://nydailynews.com,6.703272,8.8997015
Meejo,aerdesiw@japanpost.jp,86216 Portage Plaza,1,https://buzzfeed.com,14.9165428,-17.1203909
Fiveclub,deilhertsenix@nymag.com,5336 Bowman Junction,2,http://china.com.cn,48.958607,1.845782
JumpXS,cwymaniy@sourceforge.net,594 Harper Point,4,http://mac.com,-0.5732343,117.1323579
Kanoodle,jrodenhurstiz@usatoday.com,537 Kedzie Point,1,https://unblog.fr,21.428436,110.869567
Babbleopia,blohdenj0@google.es,09 Troy Hill,3,https://eepurl.com,0.3332218,34.4877423
Zoombeat,lfutcherj1@yolasite.com,17038 Prairieview Parkway,0,https://goo.ne.jp,46.8289256,16.3268491
Tekfly,jmcnabj2@about.me,87 Dexter Terrace,3,https://meetup.com,5.8643369,95.3141714
Tazz,jfeldbaumj3@taobao.com,230 Vermont Lane,3,http://slideshare.net,38.7121599,-9.4356652
Feedbug,qlovattj4@google.co.jp,6030 Golden Leaf Avenue,0,http://google.es,57.30461,39.53688
Devpoint,jrosenbargj5@reverbnation.com,0440 Green Trail,4,https://ucoz.com,59.3320898,18.0574901
Realbridge,emactimpanyj6@cnbc.com,469 Columbus Park,4,http://thetimes.co.uk,50.41661,31.46261
Latz,obransdonj7@hugedomains.com,41 Cottonwood Center,4,http://dedecms.com,28.659387,87.124099
Thoughtstorm,awychej8@ebay.co.uk,5 Eagle Crest Pass,0,http://ezinearticles.com,-8.0545403,111.8268458
Topiclounge,ogosnayj9@opensource.org,68 Meadow Ridge Parkway,3,https://naver.com,-8.5335451,-172.5165543
Cogidoo,wmeakinja@go.com,8368 Mallory Court,5,http://timesonline.co.uk,-1.2457596,102.2261837
Zoomcast,cgidleyjb@si.edu,349 Forest Run Alley,5,http://nasa.gov,8.157005,123.3464285
Demizz,fbenetjc@a8.net,49938 Crowley Place,4,https://alibaba.com,49.7979502,21.0782963
Jazzy,aoldcroftjd@elegantthemes.com,771 Rigney Hill,3,https://imdb.com,-6.9277361,106.9299579
Jetwire,tsmallesje@howstuffworks.com,976 Garrison Circle,1,http://indiegogo.com,-6.1701003,106.0522616
Zoonder,gcleminsonjf@webnode.com,84396 Burning Wood Lane,2,http://fastcompany.com,14.7596318,121.0589081
Meevee,fhibbartjg@wordpress.org,627 Meadow Valley Trail,5,https://networksolutions.com,-27.8942891,31.6454222
Twitterbridge,psleightholmjh@deliciousdays.com,0 Rigney Pass,2,http://utexas.edu,48.019573,66.923684
Buzzbean,lmecchiji@washington.edu,44 Westport Avenue,0,http://eepurl.com,38.0434058,-121.2969674
Jaloo,cmatteinijj@mozilla.org,234 Memorial Road,2,https://reddit.com,0.4907958,121.4713265
Izio,rricardsjk@chron.com,63168 Moose Circle,1,https://fema.gov,50.1676885,23.0349969
Livepath,bborejl@dailymotion.com,58827 Dottie Terrace,3,http://salon.com,4.949601,-74.593836
Vimbo,mwreightjm@blog.com,39251 Hanson Street,2,http://behance.net,17.7409147,-91.7660525
Skalith,espriggjn@ycombinator.com,927 Holmberg Parkway,5,https://ocn.ne.jp,-26.9272107,-60.0485206
Innojam,ndangerfieldjo@dion.ne.jp,950 Arkansas Avenue,4,https://indiegogo.com,32.47304,35.0936
Flashset,jgrzelewskijp@bigcartel.com,5 Canary Junction,3,https://ning.com,12.8603014,101.5361726
Leenti,cbowmanjq@fc2.com,2746 Morning Point,5,https://discuz.net,18.0435607,100.1031202
Voonte,nhalbeardjr@google.pl,2 Holy Cross Terrace,2,http://purevolume.com,9.165288,-79.5434841
Fivebridge,ctillejs@latimes.com,10133 Green Point,1,https://webeden.co.uk,18.7853577,99.0184183
Agimba,ldonisejt@sitemeter.com,00301 Fairview Crossing,2,http://oakley.com,42.43848,70.4759186
Quatz,rkermannesju@privacy.gov.au,96 Lyons Junction,1,https://ebay.com,49.2059545,-2.1336267
Katz,pcristeajv@cmu.edu,97 Jana Lane,2,https://virginia.edu,1.4403613,10.5718086
Shuffletag,smacconaghyjw@com.com,9637 Division Circle,0,https://mit.edu,59.0800798,24.2361948
Vinder,kjervoisejx@yolasite.com,7251 Hauk Place,4,http://whitehouse.gov,55.983852,92.8465307
Devpoint,gfusedalejy@godaddy.com,2846 Surrey Junction,1,http://studiopress.com,44.9279556,13.8716558
Babbleset,ctriggeljz@timesonline.co.uk,2 Bartelt Street,4,https://ezinearticles.com,53.2060963,5.7524581
Mybuzz,nhankeyk0@slate.com,37789 Hovde Terrace,1,http://twitter.com,50.2505714,19.7778549
Skalith,mwawerk1@behance.net,7243 2nd Park,5,https://dagondesign.com,22.43,41.75
Kamba,hcronk2@rakuten.co.jp,97 Fordem Place,3,https://altervista.org,35.0612128,33.4047109
Yakijo,sreavellk3@reference.com,71817 Novick Point,5,https://constantcontact.com,35.2531076,58.2890043
Dablist,aswink4@jiathis.com,4 Swallow Parkway,3,http://who.int,41.3047616,69.2817267
Tavu,rwestmancoatk5@ning.com,24485 Comanche Place,3,http://aol.com,61.722009,23.3256027
Livepath,elongsonk6@mapquest.com,9174 Loeprich Terrace,4,http://bloomberg.com,42.2971095,-71.4720787
Skidoo,mbeardsellk7@webmd.com,92 Schmedeman Street,5,http://mail.ru,-1.1748105,36.8304102
Divavu,sitzkovicik8@360.cn,7719 Anthes Junction,0,https://businessweek.com,7.1453088,3.3590446
Nlounge,ablacksellk9@istockphoto.com,83 Springview Place,1,https://sina.com.cn,49.2412468,30.098993
Lazzy,astapleska@4shared.com,10 Schiller Lane,1,http://apple.com,37.1597829,-7.9440252
Linkbridge,jranscombekb@ifeng.com,0217 Kennedy Center,5,https://sourceforge.net,32.53292,110.983684
Quire,fjaggarkc@nih.gov,345 Stephen Parkway,2,https://t.co,-29.962127,-51.7250108
Meevee,khartzogskd@posterous.com,7578 Waubesa Road,5,https://reference.com,10.2683199,-68.0179418
Jayo,dbacopke@elpais.com,689 Boyd Lane,4,https://imgur.com,59.3257396,14.0908934
Buzzdog,arockkf@github.io,80406 Little Fleur Circle,4,https://huffingtonpost.com,51.8204945,68.3636926
Flashdog,gsperingkg@princeton.edu,13695 Norway Maple Circle,2,https://so-net.ne.jp,-25.8520478,25.6065929
Voonix,tbarriballkh@state.tx.us,1 Pearson Street,2,https://instagram.com,6.902156,80.58662
Flashpoint,qhartmannki@phoca.cz,93 Bartillon Parkway,5,http://economist.com,24.839129,105.417397
Wordware,cglusbykj@is.gd,85286 Tony Avenue,0,http://virginia.edu,32.7407045,36.7738708
Camimbo,ltroupkk@mac.com,8 Village Park,3,http://archive.org,-36.8868126,-60.3003601
Skalith,nneliuskl@issuu.com,1 Stang Drive,4,https://tripod.com,23.759956,116.157387
Avaveo,rsexceykm@desdev.cn,27 Doe Crossing Lane,2,http://buzzfeed.com,-7.2026914,108.1013637
Vipe,rwombwellkn@wordpress.com,62454 Daystar Plaza,0,http://photobucket.com,59.3465821,26.365315
Eire,mstormonthko@cloudflare.com,18 Michigan Trail,0,http://parallels.com,59.2234099,17.9436913
Voonix,ghakingkp@studiopress.com,6519 Autumn Leaf Parkway,3,http://homestead.com,15.17627,-88.724632
Youopia,ufieldhousekq@friendfeed.com,59682 Daystar Place,2,http://weibo.com,-9.62074,119.56671
Centizu,tklimaskr@senate.gov,05515 South Way,1,http://usda.gov,39.877206,115.881215
Tazzy,ghulbertks@mysql.com,19 Colorado Hill,1,http://tripadvisor.com,39.9338165,69.5678329
Brightdog,gdiveskt@odnoklassniki.ru,9 Old Gate Point,3,https://umich.edu,47.0163969,-68.1430029
Trudeo,qcutchieku@fda.gov,54965 Namekagon Terrace,3,http://ucoz.com,-7.3522365,108.0450467
Yacero,hhewsonkv@bing.com,122 Melby Place,3,http://comcast.net,9.2716618,-2.9925577
Lazz,dhairesnapekw@sphinn.com,232 Lighthouse Bay Circle,2,http://usda.gov,-7.1508118,111.9075351
Wikizz,hbaxstairkx@ca.gov,29823 Rusk Drive,4,http://shutterfly.com,22.44668,114.033953
Eidel,kstealyky@blogs.com,7 Roth Center,4,https://domainmarket.com,-6.9927364,107.8731968
Eadel,zmcmurtykz@twitter.com,9 Transport Avenue,4,https://nasa.gov,43.6943099,2.0376775
Einti,agatelandl0@dmoz.org,293 Banding Place,3,https://issuu.com,52.7602576,20.5308214
Devpoint,vricartl1@studiopress.com,85 Eagle Crest Trail,2,http://blinklist.com,44.1875931,-77.3882908
Latz,rtremlettl2@prweb.com,166 Dapin Place,0,http://cbc.ca,11.7874103,-86.5141817
Riffwire,ccansfieldl3@vinaora.com,2423 Grover Plaza,5,http://uiuc.edu,31.7711077,119.9742793
Skaboo,gmarcussenl4@so-net.ne.jp,4674 Rockefeller Crossing,4,http://elegantthemes.com,33.3594755,35.5889282
Kwimbee,cgairdnerl5@adobe.com,0808 Debra Court,5,https://sciencedaily.com,-7.4720926,108.6324073
Tagopia,bcranagel6@loc.gov,87 Dawn Court,5,https://seesaa.net,41.4009304,-8.335096
Oozz,tlangcastlel7@themeforest.net,6 Caliangt Road,3,https://homestead.com,-6.8031681,107.3050627
Topiczoom,ftappingl8@mozilla.com,30 Northridge Trail,5,https://typepad.com,-11.8887963,-75.2865498
Quimm,jpoonel9@csmonitor.com,3 Oak Crossing,5,http://google.co.uk,48.9010174,17.3168102
Fivechat,amerrymanla@eepurl.com,03640 Village Green Point,5,https://wikispaces.com,60.4563994,50.9907161
Realblab,wscarrottlb@blinklist.com,67 Packers Trail,5,https://marriott.com,29.98784,107.621139
Skinder,sjellicolc@sciencedirect.com,6 Barby Pass,1,https://altervista.org,60.1516625,29.9345185
Avavee,sdomekld@geocities.com,8 Miller Terrace,3,http://huffingtonpost.com,11.2658847,7.6480296
Skibox,udukelowle@msu.edu,7 Bonner Road,0,https://uiuc.edu,43.8051322,43.7759042
Wordtune,btrotmanlf@lulu.com,2431 Almo Trail,0,http://hhs.gov,5.1079431,8.1789301
Babbleset,mfleaylg@g.co,1160 Hermina Center,5,https://weibo.com,-7.003771,108.2257659
Zoombox,tgerblh@japanpost.jp,7 Myrtle Circle,3,https://smh.com.au,33.3457623,130.785523
Eare,mwiffenli@networksolutions.com,619 Merry Circle,5,http://smh.com.au,12.261245,121.990929
Oyoba,trisboroughlj@chronoengine.com,24513 Meadow Vale Plaza,4,https://amazon.com,49.7938443,36.0269813
Camido,afrisselllk@macromedia.com,216 Dryden Place,0,http://slashdot.org,31.5798898,35.0999042
Topdrive,ahalesll@facebook.com,62093 4th Junction,0,http://skyrock.com,32.047243,44.3709408
Mynte,adefilippolm@hc360.com,15781 Muir Center,5,http://gov.uk,41.2606416,-8.4347858
Youbridge,gpatterfieldln@trellian.com,49 Mayer Crossing,2,https://yolasite.com,-10.0188555,120.0549683
Twimbo,egeatorlo@reverbnation.com,5730 Grover Point,1,https://fda.gov,36.6589921,138.1877051
Wordpedia,sbromeheadlp@who.int,668 Parkside Road,0,https://sohu.com,35.2303205,70.3360691
Topiclounge,zsmalmanlq@sfgate.com,99 Victoria Center,5,http://ifeng.com,31.9852068,119.5719162
Voonyx,rblincowelr@time.com,5302 Maple Wood Trail,4,http://geocities.com,29.808374,120.118331
Linktype,dfownesls@trellian.com,6 Pankratz Street,1,https://google.nl,23.364295,116.700277
Twitterbeat,amorsomlt@hhs.gov,92 Lillian Court,4,https://themeforest.net,15.9275907,120.4355906
Camido,hwallerlu@creativecommons.org,65 Clove Trail,2,http://walmart.com,8.6,144.55
Livepath,cparncuttlv@w3.org,7 Debs Plaza,2,http://paypal.com,37.9810474,23.6498494
Eimbee,svisicklw@example.com,929 Summit Drive,3,http://hexun.com,-7.2964746,108.7571263
Zoovu,mpedellx@samsung.com,673 Prairieview Street,0,https://ocn.ne.jp,32.2299999,-86.19
Skyndu,nheinonenly@liveinternet.ru,87820 Alpine Drive,2,https://addthis.com,51.5136143,-0.1365486
Zoonder,rtregunnalz@foxnews.com,090 Ronald Regan Way,0,https://ebay.com,41.183785,112.375015
Realmix,ckaubischm0@independent.co.uk,7 Schmedeman Avenue,5,http://dedecms.com,40.2166885,141.3014573
Twinte,bmaccrackenm1@discuz.net,84322 1st Avenue,0,https://bloomberg.com,30.0814376,66.9622545
Gabvine,dtolottim2@livejournal.com,945 Tennyson Junction,2,https://buzzfeed.com,10.4819603,-6.4130601
Kwimbee,elacroutsm3@cdbaby.com,90 Linden Street,1,https://independent.co.uk,33.489877,112.429133
Linkbridge,adomenichinim4@smugmug.com,76 Goodland Lane,3,https://vk.com,41.1245616,-7.9287227
Kare,slougheadm5@dyndns.org,93 Karstens Terrace,4,http://who.int,34.26645,108.960747
Zoonoodle,rchrippesm6@nifty.com,0 Valley Edge Pass,1,https://howstuffworks.com,32.19061,35.29332
Gabcube,jtreherm7@biblegateway.com,2 Texas Park,5,http://angelfire.com,29.894972,121.538057
Yakijo,mdefilippim8@goo.gl,44 Hollow Ridge Plaza,5,http://youtu.be,1.0725136,121.499885
Youspan,bbabbidgem9@ox.ac.uk,128 Dunning Center,3,https://google.ru,-21.4803962,-56.1494143
Kazio,kpetchellma@wordpress.com,569 Carpenter Drive,0,http://sfgate.com,52.753093,-2.941678
Jabbersphere,vdurantmb@yahoo.com,8 Browning Center,2,http://ox.ac.uk,-25.4645818,-56.013851
Brainlounge,gstennettmc@auda.org.au,249 Paget Point,0,https://epa.gov,47.55728,124.21591
Flashpoint,fcharettemd@webnode.com,60 Buell Alley,5,https://hc360.com,-5.1031698,-79.88468
Browsetype,dshieberme@yellowpages.com,93 Monterey Street,5,http://cnn.com,39.6472855,-8.8615521
Voonte,preidmf@google.com.au,93 Florence Trail,4,https://mysql.com,9.7494365,105.5327831
Abatz,ksivornmg@utexas.edu,072 Mayer Plaza,5,http://usa.gov,-7.1520459,108.5196028
Mycat,mmacclenanmh@liveinternet.ru,74 Anhalt Drive,4,http://chron.com,41.6262043,-7.5092352
Latz,elundonmi@cpanel.net,44769 Maryland Circle,3,https://webnode.com,40.1311441,-8.3924705
Youbridge,istampemj@nytimes.com,10 Forest Run Park,1,http://vinaora.com,-23.4157731,-51.4264048
Plajo,kwickardtmk@oaic.gov.au,2 New Castle Circle,0,https://barnesandnoble.com,23.157289,113.273288
Voolith,lburtonml@discuz.net,18688 Del Sol Circle,4,https://alibaba.com,35.8054733,-78.6169494
Wordify,clinchmm@economist.com,1410 Magdeline Point,2,http://ca.gov,26.1737172,127.8081231
Fliptune,lsissemn@google.es,92 Vahlen Trail,0,https://nbcnews.com,8.9308058,-79.7343791
Mymm,ctoopmo@elegantthemes.com,593 Superior Drive,5,https://furl.net,48.9059421,17.4598869
Flipopia,anorthinmp@wired.com,6046 Red Cloud Point,5,https://delicious.com,16.80778,48.10917
Devpoint,tcratesmq@naver.com,679 Dahle Park,2,https://msu.edu,33.723039,-84.3436881
Flashset,scharkmr@rambler.ru,2 Kinsman Hill,2,https://flickr.com,39.1505158,20.737591
Zoonoodle,mmackailems@sciencedirect.com,301 Ronald Regan Court,1,https://archive.org,49.8387221,35.6206178
Devcast,emcdermidmt@twitter.com,75 Eastwood Center,4,https://eventbrite.com,-8.463483,122.4438929
Blogtags,kdaviddimu@washingtonpost.com,2 Reindahl Pass,3,https://nba.com,-6.2176613,106.8679827
Snaptags,jpedronmv@live.com,145 Bonner Point,5,https://plala.or.jp,4.6147368,21.8866683
Camimbo,ehuertasmw@constantcontact.com,400 Butterfield Point,2,http://redcross.org,45.3495592,127.095743
Trunyx,aduforemx@ox.ac.uk,963 Carey Hill,0,http://washington.edu,38.8965627,-77.0224418
Twinder,gyakubovicsmy@de.vu,034 Columbus Terrace,2,https://360.cn,55.0099537,39.0764494
Buzzbean,rpeachermz@hibu.com,1 Duke Parkway,5,http://sina.com.cn,34.15599,64.78566
Jazzy,kdebroken0@jigsy.com,9768 Brentwood Circle,1,https://accuweather.com,11.9805692,-86.3110516
Feedbug,rduelln1@elegantthemes.com,087 Kensington Trail,5,http://imdb.com,-6.289662,106.755605
Zoomzone,dgerbeln2@blogtalkradio.com,8 Di Loreto Crossing,1,https://columbia.edu,45.0577954,34.605095
Skiptube,cgallegon3@histats.com,6775 Melody Lane,0,https://merriam-webster.com,48.13348,-78.13283
Tagopia,wkiddern4@printfriendly.com,08188 Thackeray Place,1,https://dropbox.com,24.052487,114.701871
Wikibox,pdarwenn5@sakura.ne.jp,2915 Granby Circle,5,http://pen.io,-8.5697306,123.3991028
Buzzshare,hidwalevansn6@soup.io,05 Cordelia Lane,0,https://sohu.com,57.6999197,11.9101293
Photolist,trogeonn7@usda.gov,2 Blaine Crossing,4,http://pcworld.com,56.114128,101.186866
Snaptags,jfendleyn8@artisteer.com,290 American Ash Place,5,http://webnode.com,-8.1252687,113.4329607
Twitterwire,okinglesydn9@biglobe.ne.jp,5 Veith Terrace,3,https://marketwatch.com,40.6140785,20.7778071
Kwinu,mphilippena@bizjournals.com,0 Rockefeller Road,0,https://dion.ne.jp,35.1268513,-119.1855785
Chatterbridge,fwhitehornenb@facebook.com,8 Bellgrove Plaza,1,http://craigslist.org,-9.581512,-77.7072909
Latz,haneleync@ning.com,62038 Linden Street,1,http://barnesandnoble.com,48.7277622,100.7724281
Fivechat,hbolvernd@soup.io,33715 Armistice Hill,2,http://wikipedia.org,-7.1856094,112.3188749
Demizz,cwhitwoodne@prnewswire.com,74362 Lakewood Plaza,4,http://google.es,-9.922886,38.328209
Jaxnation,ckillorannf@princeton.edu,81 Elgar Center,1,http://webnode.com,49.6005751,6.3670151
Gabtype,dplunketng@google.co.jp,6206 Farmco Point,1,http://freewebs.com,-8.2531136,117.7959713
Skyble,amacpheenh@yahoo.co.jp,59851 Moose Plaza,5,http://princeton.edu,-23.2987827,-45.9662542
Tazz,rdraytonni@squidoo.com,9 Schmedeman Trail,4,https://miibeian.gov.cn,-7.0116198,113.8510375
Skalith,gmiskimmonnj@ucsd.edu,75 Heath Drive,3,https://ucsd.edu,31.717564,119.382381
Quire,eakersnk@constantcontact.com,279 Chinook Hill,0,http://seattletimes.com,39.9990626,-83.0173386
Gabtune,gholburynl@boston.com,5 New Castle Terrace,2,https://booking.com,38.058734,58.177902
Yata,rdodridgenm@umich.edu,249 Elmside Center,3,http://wp.com,-24.5323166,32.9831998
JumpXS,dzanninn@stumbleupon.com,88804 Algoma Street,2,https://flavors.me,53.0226508,20.4361149
Eire,fcrawshayno@virginia.edu,7183 Browning Terrace,3,http://netscape.com,5.2362218,96.2283035
Roombo,cmckennannp@sbwire.com,9461 Elka Parkway,3,http://weather.com,13.7051354,100.6461557
Kare,mpavliknq@twitter.com,46 Buhler Lane,4,https://mayoclinic.com,59.4874462,17.8147061
Demimbu,cvasyukhichevnr@wix.com,1 Nancy Avenue,2,https://berkeley.edu,30.849762,116.359692
Tanoodle,doquirkns@aol.com,64287 Namekagon Street,0,http://mail.ru,28.563927,108.50387
Devshare,cpitkeathleynt@live.com,605 8th Crossing,5,http://howstuffworks.com,47.1291041,4.9137748
Demivee,rsichnu@woothemes.com,4692 Reindahl Alley,0,https://hibu.com,-12.0575891,-76.9423651
Dabjam,egregorenv@hibu.com,1 Basil Alley,0,http://ted.com,-43.2098678,171.3169384
Jayo,esagersonnw@nyu.edu,90580 Golf View Terrace,3,https://canalblog.com,55.1391321,27.6842905
Quinu,egilardoninx@amazon.de,4390 Gateway Road,2,http://dropbox.com,31.9799036,105.6419561
Divape,ssmithsny@spiegel.de,4 Shasta Hill,2,https://squidoo.com,47.3860507,0.7236073
Kayveo,emerceynz@stanford.edu,9 Lakewood Trail,1,http://sogou.com,33.358433,36.2522371
Bluezoom,kbeckerlego0@i2i.jp,10 Bartillon Junction,5,https://dagondesign.com,38.2643887,140.2604198
Myworks,qhryskiewiczo1@mashable.com,0 Cherokee Avenue,0,https://deliciousdays.com,40.6180185,-8.7338528
Jaxbean,clindroo2@wired.com,8 Hoffman Alley,1,http://naver.com,44.6186368,33.6059169
Wordpedia,bbakstero3@examiner.com,4231 Ramsey Place,0,http://vkontakte.ru,34.4729886,-5.295876
Gabvine,jfriddo4@deliciousdays.com,9387 Clemons Pass,4,http://virginia.edu,59.2830988,18.033347
Bubblebox,dlundbecho5@cmu.edu,456 Bayside Pass,1,http://w3.org,-32.9817511,-60.6944851
Npath,cdemetro6@msn.com,56921 Wayridge Park,5,http://miibeian.gov.cn,29.471977,106.476211
Skyvu,ktieo7@vimeo.com,40 Nelson Circle,0,https://forbes.com,47.2265307,2.0598182
Devpoint,lmcbratneyo8@buzzfeed.com,9351 Sunfield Alley,1,http://cloudflare.com,53.488087,-10.022186
Rhyzio,atwintermano9@slashdot.org,745 Meadow Vale Point,5,http://tamu.edu,40.7163491,19.7502384
Innotype,abernoletoa@thetimes.co.uk,3819 Tennyson Crossing,1,https://gov.uk,17.8886522,-76.3897733
Yoveo,jbossob@histats.com,1 Merchant Park,0,https://joomla.org,-9.9275387,124.2254855
Feednation,ssoitouxoc@studiopress.com,39 Sunfield Park,4,http://dyndns.org,34.683646,112.469023
Linktype,eswaffordod@noaa.gov,0553 Golf Course Point,4,https://tripod.com,29.2,94.08333
Roodel,fquinnellyoe@china.com.cn,7567 Schmedeman Lane,2,https://vinaora.com,39.4665574,-31.1474124
Vimbo,kquakleyof@canalblog.com,541 Pennsylvania Terrace,4,https://amazon.com,40.02219,98.99644
Gabspot,wgaitog@csmonitor.com,11648 Main Alley,3,http://addthis.com,36.097577,114.392392
Wikido,carblasteroh@msu.edu,46 Myrtle Way,5,https://toplist.cz,32.364918,111.594957
Zoonder,asmellieoi@technorati.com,47 Hollow Ridge Plaza,3,http://is.gd,46.990055,3.160773
Dynabox,sreddishoj@independent.co.uk,40 Bellgrove Point,1,http://istockphoto.com,31.074834,109.879153
Gabvine,obalkeok@mashable.com,515 Crest Line Trail,5,https://ucoz.ru,32.501495,119.196466
Roodel,mbeldingol@goo.ne.jp,7 Shelley Park,3,http://statcounter.com,4.6889438,-75.777846
Buzzshare,mrudsdaleom@multiply.com,0666 Stoughton Junction,4,https://guardian.co.uk,32.2821952,-90.2291565
Leenti,kivashchenkoon@cbc.ca,326 Almo Circle,4,http://harvard.edu,15.5450531,121.0872097
Twinder,bnooneoo@cmu.edu,3628 Bunker Hill Trail,4,https://vistaprint.com,56.6739933,16.2869539
Yombu,rwolfindaleop@independent.co.uk,7011 Hooker Alley,3,http://tuttocitta.it,24.77848,110.496593
Quire,jmcnivenoq@microsoft.com,68418 Nelson Point,4,https://independent.co.uk,24.660711,118.460176
Chatterbridge,cretallickor@arstechnica.com,45 Jay Crossing,3,https://upenn.edu,55.889724,60.7444752
Jetpulse,amellsopos@msn.com,819 Myrtle Circle,1,http://theatlantic.com,31.1356648,30.1327813
Shuffledrive,xbavageot@printfriendly.com,64 Ridgeway Place,4,https://abc.net.au,27.8436202,-82.7036033
Digitube,djesperou@loc.gov,3650 Kingsford Circle,4,http://purevolume.com,-6.4,39.55
Babbleset,obedboroughov@mediafire.com,502 Cascade Hill,4,https://nyu.edu,7.11667,124.4
Mymm,cmarstonow@sun.com,6 Glacier Hill Avenue,2,http://archive.org,58.9747897,5.6952439
Dynazzy,gmaticox@chronoengine.com,5629 Columbus Drive,2,http://time.com,34.8323566,33.5895956
Jaloo,fvliesoy@unicef.org,4 Lake View Road,3,http://unicef.org,45.1433372,1.4739649
Yakitri,imaddinoz@tinypic.com,2368 Warbler Circle,4,https://seattletimes.com,47.6479788,36.164764
Realcube,cturrellp0@ihg.com,040 Golden Leaf Road,4,https://buzzfeed.com,38.0222208,23.7851957
Zazio,cmoirp1@odnoklassniki.ru,66 Beilfuss Plaza,0,http://canalblog.com,44.0527811,6.1717148
Mita,adehailesp2@economist.com,3953 Old Shore Street,1,http://infoseek.co.jp,9.4101982,45.0629902
Rhybox,kzimmerp3@vimeo.com,2033 Tony Way,3,https://newyorker.com,52.2876905,45.3602833
Meejo,pbrendep4@gov.uk,1768 Village Green Point,3,https://sogou.com,9.8245916,122.9082413
Divanoodle,cshilstonep5@smugmug.com,52 Maple Wood Trail,1,http://ezinearticles.com,41.0901834,-73.541744
Feednation,dpenellip6@unesco.org,18 Haas Plaza,3,https://hud.gov,46.4005111,-72.2690204
InnoZ,glangfatp7@nationalgeographic.com,2 Gulseth Crossing,1,http://1688.com,47.4912362,19.0858151
Photospace,vllywarchp8@smh.com.au,3057 Scofield Circle,0,http://51.la,-7.6411786,112.6377432
Bluezoom,nbalcersp9@mayoclinic.com,484 Lyons Avenue,1,https://weather.com,22.919769,113.618216
Vitz,ehorsefieldpa@hugedomains.com,0 Chive Place,4,https://nyu.edu,43.4945737,5.8978018
Mydo,pfookespb@wunderground.com,4 High Crossing Plaza,2,http://usnews.com,49.3788944,14.7029806
Tagtune,jedgintonpc@latimes.com,4 Derek Avenue,5,https://technorati.com,18.2943776,105.6745247
Vimbo,sstanbrapd@paginegialle.it,0207 Cody Street,2,http://ed.gov,-6.9665934,112.2205183
Centizu,scharrettpe@squarespace.com,8 Cottonwood Way,3,http://cbc.ca,69.63186,18.9221
Brainlounge,awestonpf@squarespace.com,43 Eastlawn Park,5,https://liveinternet.ru,52.28375,16.7007399
Yodoo,dbogpg@macromedia.com,301 Rieder Junction,0,https://jiathis.com,26.682871,100.109307
Katz,lflahertyph@mapquest.com,0331 Anniversary Lane,2,http://qq.com,-23.4819846,-49.2435998
Skibox,gbilstonpi@odnoklassniki.ru,378 Burrows Junction,2,http://globo.com,55.921585,158.709579
Jaxspan,bdiklespj@un.org,532 Rockefeller Junction,0,https://ocn.ne.jp,40.2233515,-8.5336525
Skimia,cbleasepk@ucoz.com,2 Old Gate Alley,4,https://msn.com,53.0418691,16.4616756
Cogilith,dojedapl@trellian.com,18099 Fairview Terrace,5,https://phpbb.com,35.1684393,138.6660042
Jabbercube,edavidovepm@google.com,45685 Northfield Street,4,https://shareasale.com,13.4767279,144.7651497
Einti,aruburypn@hostgator.com,91 Fulton Place,1,https://blinklist.com,49.9378835,40.5529044
Mydeo,wcastillopo@columbia.edu,8 Texas Park,2,https://mysql.com,31.7711077,119.9742793
Shufflebeat,lmaccartpp@nifty.com,9 Express Junction,5,https://miibeian.gov.cn,3.1638781,99.5339744
Mynte,jgillowpq@amazon.co.uk,434 Kedzie Way,4,https://geocities.com,36.5389716,136.6033466
Realfire,vbeidebekepr@gizmodo.com,2 Novick Junction,4,http://youtu.be,0.845865,108.8796091
Topicblab,kolwenps@wunderground.com,43480 Declaration Center,3,https://google.ca,34.95563,36.1983
Topiczoom,csauvenpt@hud.gov,49628 Dennis Lane,2,https://washingtonpost.com,40.076762,113.300129
Kwideo,hbonaviapu@people.com.cn,2 Jenna Hill,3,https://nasa.gov,29.6252177,-95.2208569
Miboo,whewinspv@google.fr,8787 Kensington Junction,5,http://mayoclinic.com,8.27533,-73.868176
Blogpad,jthoresbiepw@wordpress.com,9391 Iowa Terrace,0,https://com.com,40.7174599,23.044765
Topicware,ttubrittpx@go.com,10 North Parkway,0,http://xinhuanet.com,40.8875343,19.5880506
Jamia,jdonnpy@msu.edu,5 Ryan Terrace,4,https://bloglines.com,34.5739933,-5.9515399
Ooba,fcoselypz@yolasite.com,39110 Rutledge Circle,1,http://cnn.com,13.1981877,-87.3785917
Trunyx,hdurantq0@springer.com,030 Susan Way,1,https://geocities.jp,14.5618599,121.0130439
Tagtune,odreweq1@chronoengine.com,5 Goodland Center,4,http://cyberchimps.com,59.5085196,18.0551581
Trilia,cruffliq2@europa.eu,2 Spaight Hill,2,http://vistaprint.com,22.555259,113.884019
Voomm,apenhaleq3@marketwatch.com,89 Swallow Circle,0,https://51.la,47.3591366,2.8002946
Trilith,sswateq4@sfgate.com,29 4th Plaza,1,http://apple.com,3.1035814,101.640078
Jaloo,mblackwayq5@google.it,556 Summit Crossing,1,http://boston.com,-7.5904342,108.7630664
Devpulse,apankettmanq6@fda.gov,3170 Corscot Crossing,1,http://yellowpages.com,-6.9828037,109.5568089
Teklist,dvakhlovq7@dedecms.com,7364 Hoffman Place,3,http://gravatar.com,14.8533744,100.9894413
Dabfeed,bkeebleq8@comcast.net,1 Derek Plaza,0,https://nydailynews.com,57.6593247,11.8915238
Tagopia,dglaumq9@nps.gov,3755 Brown Point,0,http://bluehost.com,32.8565219,-96.6038258
Rhycero,thaddletonqa@sphinn.com,65 Monterey Way,5,http://dot.gov,-37.0920575,-73.1545822
Twitterworks,fkeavyqb@odnoklassniki.ru,8844 Elmside Center,5,http://xrea.com,-20.7784132,-41.6847632
Wordpedia,bmorewoodqc@1und1.de,062 Evergreen Road,5,http://state.gov,33.189192,120.103473
Lazz,ssmallesqd@mac.com,38 Comanche Center,2,https://woothemes.com,14.9836277,-88.0182472
Youfeed,kjonkeqe@google.com.hk,1 Russell Center,2,https://stumbleupon.com,58.3986162,15.5385144
Kanoodle,mseniorqf@apache.org,464 Reinke Pass,5,http://spiegel.de,-9.9404,124.3147
Youtags,nsedenqg@oracle.com,3061 Florence Street,5,https://squarespace.com,53.4562426,-6.2071246
Divanoodle,mmadgwickqh@sogou.com,2008 Graceland Pass,0,https://omniture.com,32.7827213,131.1627748
Wikizz,igaskerqi@smugmug.com,540 Clyde Gallagher Hill,0,http://1688.com,47.3675629,2.901637
Tanoodle,pfarreyqj@cdbaby.com,359 Prairieview Avenue,5,http://geocities.jp,-7.042646,110.894036
Devcast,jwaldrumqk@gov.uk,851 Delladonna Place,2,https://networksolutions.com,57.5129829,24.721996
Linklinks,sdoggql@jalbum.net,4649 Bluestem Circle,2,https://live.com,59.3164285,18.0590482
Yotz,chuberyqm@vistaprint.com,29605 Manufacturers Plaza,3,http://icq.com,47.731164,87.463427
Brainbox,rlackeyeqn@histats.com,7571 Kenwood Park,3,https://xinhuanet.com,53.0985458,6.0694
Tagpad,nstationqo@latimes.com,15379 Village Park,5,http://google.ca,45.4560254,9.1257661
Avamba,fhardwickeqp@techcrunch.com,75182 Merchant Parkway,5,http://imgur.com,15.0759838,108.7125791
Kwideo,jhughesdonqq@redcross.org,46557 Mockingbird Point,5,http://theatlantic.com,-1.3524989,-48.2592606
Yotz,crunacresqr@samsung.com,70149 Lakewood Gardens Street,3,http://unesco.org,40.3510997,44.3714277
Vinder,vraunqs@1und1.de,15 Esch Road,0,https://va.gov,10.04208,11.21814
Lazzy,gbewseyqt@macromedia.com,91 Mendota Center,3,http://printfriendly.com,-6.7565445,106.7382072
Meejo,kmachenqu@smh.com.au,60243 Dawn Pass,2,http://comcast.net,-8.727652,122.2483726
Gabtune,dduckqv@google.pl,743 Michigan Center,1,http://stumbleupon.com,33.12688,106.558023
Quimba,mtesyroqw@pcworld.com,2788 Packers Park,2,https://stanford.edu,39.672791,113.732809
Blogspan,ggainsefordqx@hostgator.com,1679 Birchwood Trail,2,http://bloglines.com,34.366396,105.567066
Vipe,mhincksqy@meetup.com,302 Columbus Junction,5,http://nhs.uk,55.1613358,61.2971487
Wikizz,psimioneqz@bizjournals.com,1 Coolidge Place,1,http://taobao.com,30.594336,105.236903
BlogXS,nrosettir0@va.gov,743 Kim Street,0,http://globo.com,14.9817467,-87.8893383
Centimia,hguittetr1@walmart.com,36386 Anderson Road,1,http://woothemes.com,48.99534,-123.8161
Wordpedia,rrollandr2@spiegel.de,6982 Nevada Alley,2,http://discuz.net,47.785421,-3.2602564
Trilia,rkhadirr3@oaic.gov.au,5 Loomis Place,3,https://github.io,49.1536517,-122.9057947
Wordtune,myairr4@google.nl,358 Lunder Terrace,3,http://google.pl,30.815101,103.560075
Yabox,jdorricottr5@instagram.com,15 Scoville Terrace,3,https://angelfire.com,48.5347071,7.6370168
Yambee,lstenetr6@behance.net,3 Pankratz Crossing,1,http://joomla.org,32.990664,112.528308
Avavee,bantosr7@princeton.edu,76669 Norway Maple Road,4,https://noaa.gov,52.0668,-108.00135
Wordpedia,weisigr8@discovery.com,5 Anhalt Hill,0,http://va.gov,33.5147935,130.4936331
Blogtags,dvampouiller9@blogtalkradio.com,53 Almo Park,2,http://livejournal.com,34.7071301,33.0226174
Jayo,kmacronaldra@free.fr,5522 Annamark Crossing,2,http://cornell.edu,29.5580077,106.5765328
Skimia,cskivingtonrb@va.gov,158 Tennessee Trail,1,http://simplemachines.org,-7.3328576,111.9075351
Rhynoodle,hdyballrc@va.gov,2 Old Shore Trail,1,https://etsy.com,31.348795,121.7666886
Kazu,csainsrd@cloudflare.com,71410 Norway Maple Hill,2,http://angelfire.com,60.4079862,5.3151044
Wordtune,gkirdschre@networkadvertising.org,241 Iowa Crossing,4,http://google.es,52.5094874,16.7474972
Yambee,lgaitungrf@squarespace.com,12623 Donald Place,1,http://jalbum.net,-7.71725,108.07666
Jazzy,jcopoziorg@wired.com,8 Stephen Road,1,http://prlog.org,44.7051702,18.3104025
Wikivu,trunnaclesrh@linkedin.com,72209 Reindahl Place,4,https://tiny.cc,41.0699247,-80.6937177
Devcast,aquartleyri@deviantart.com,794 Farmco Crossing,5,https://whitehouse.gov,6.2272766,1.5814235
Wordtune,ewarrierrj@webs.com,005 Pankratz Crossing,1,http://csmonitor.com,50.4398775,3.3941571
Mita,wtoweyrk@quantcast.com,11376 Cardinal Point,4,https://buzzfeed.com,51.7920503,56.3442985
Tagfeed,gbaylyrl@woothemes.com,575 Spenser Avenue,5,https://apple.com,14.0790439,5.956825
Jetpulse,jturrillrm@ihg.com,010 South Drive,4,http://theatlantic.com,25.822349,107.322323
Oyoba,fbangleyrn@un.org,2476 Raven Point,0,http://google.com,-20.0292302,-45.5313666
Meevee,ubecerilro@lycos.com,6177 Ohio Parkway,1,https://oakley.com,2.298952,98.1120116
Zoombeat,mdrewerp@jiathis.com,2 Crownhardt Junction,4,https://un.org,49.8564201,18.4660353
Blogspan,talfusorq@fema.gov,040 Gateway Plaza,3,https://canalblog.com,34.073572,100.695534
Skivee,kpiaggiarr@toplist.cz,8 Hudson Junction,1,https://wordpress.com,-8.2531767,-77.9990449
